{
  "metadata": {
    "descargado_en": "2026-05-18T12:19:27.595183",
    "fuente": "https://overpass-api.de/api/interpreter",
    "total_elementos": 7560
  },
  "data": {
    "elements": [
      {
        "type": "node",
        "id": 255173940,
        "lat": 43.5374883,
        "lon": -5.6840265,
        "tags": {
          "amenity": "restaurant",
          "cuisine": "regional",
          "name": "Sidrería Poniente",
          "wheelchair": "limited",
          "_amenity_query": "restaurant"
        }
      },
      {
        "type": "node",
        "id": 255173941,
        "lat": 43.5368402,
        "lon": -5.6840462,
        "tags": {
          "addr:postcode": "33212",
          "addr:street": "Plaza de la Ciudad de La Habana",
          "amenity": "restaurant",
          "cuisine": "regional",
          "name": "El llavianu",
          "smoking": "separated",
          "wheelchair": "yes",
          "_amenity_query": "restaurant"
        }
      },
      {
        "type": "node",
        "id": 282215802,
        "lat": 43.3504186,
        "lon": -5.1325644,
        "tags": {
          "amenity": "restaurant",
          "check_date": "2024-08-18",
          "name": "Mesón El Puente Romano",
          "_amenity_query": "restaurant"
        }
      },
      {
        "type": "node",
        "id": 282237374,
        "lat": 43.3471015,
        "lon": -5.088374,
        "tags": {
          "amenity": "restaurant",
          "name": "Restaurante La Fabada",
          "_amenity_query": "restaurant"
        }
      },
      {
        "type": "node",
        "id": 282238090,
        "lat": 43.3513542,
        "lon": -5.12954,
        "tags": {
          "amenity": "restaurant",
          "name": "Casa Manuela",
          "phone": "+34 984 508 135",
          "_amenity_query": "restaurant"
        }
      },
      {
        "type": "node",
        "id": 282834201,
        "lat": 43.3510757,
        "lon": -5.1267152,
        "tags": {
          "addr:city": "Cangas de Onís / Cangues d'Onís",
          "addr:housenumber": "29",
          "addr:street": "Avenida de Covadonga",
          "amenity": "restaurant",
          "check_date": "2024-08-18",
          "name": "Restaurante El Abuelo",
          "_amenity_query": "restaurant"
        }
      },
      {
        "type": "node",
        "id": 282971664,
        "lat": 43.3278935,
        "lon": -4.5807187,
        "tags": {
          "amenity": "restaurant",
          "name": "Casa Fabiola",
          "_amenity_query": "restaurant"
        }
      },
      {
        "type": "node",
        "id": 452416665,
        "lat": 43.5132175,
        "lon": -5.5991245,
        "tags": {
          "amenity": "restaurant",
          "bar": "yes",
          "check_date": "2024-08-13",
          "cuisine": "regional",
          "highchair": "yes",
          "name": "Camping Deva",
          "outdoor_seating": "yes",
          "reservation": "yes",
          "_amenity_query": "restaurant"
        }
      },
      {
        "type": "node",
        "id": 452514230,
        "lat": 43.5161619,
        "lon": -5.604466,
        "tags": {
          "amenity": "restaurant",
          "name": "Sidreria El Cruce",
          "_amenity_query": "restaurant"
        }
      },
      {
        "type": "node",
        "id": 471542823,
        "lat": 43.4182304,
        "lon": -4.7534701,
        "tags": {
          "amenity": "restaurant",
          "cuisine": "regional",
          "name": "Puerta del Sol",
          "_amenity_query": "restaurant"
        }
      },
      {
        "type": "node",
        "id": 481013841,
        "lat": 43.4217572,
        "lon": -4.7560644,
        "tags": {
          "amenity": "restaurant",
          "name": "La Tasca",
          "opening_hours": "Mo-Fr 08:30-17:00,19:00-23:00;Th 08:30-17:00; Su 08:30-17:00",
          "_amenity_query": "restaurant"
        }
      },
      {
        "type": "node",
        "id": 487434137,
        "lat": 43.4218547,
        "lon": -4.7514702,
        "tags": {
          "amenity": "restaurant",
          "check_date": "2024-08-18",
          "cuisine": "regional",
          "name": "Las Piratas del Sablon",
          "_amenity_query": "restaurant"
        }
      },
      {
        "type": "node",
        "id": 487434178,
        "lat": 43.420763,
        "lon": -4.7567893,
        "tags": {
          "amenity": "restaurant",
          "check_date": "2024-08-18",
          "cuisine": "regional",
          "name": "La Galeria",
          "_amenity_query": "restaurant"
        }
      },
      {
        "type": "node",
        "id": 489290747,
        "lat": 43.418808,
        "lon": -4.7529427,
        "tags": {
          "amenity": "restaurant",
          "cuisine": "mexican",
          "name": "Chibiski",
          "_amenity_query": "restaurant"
        }
      },
      {
        "type": "node",
        "id": 489290749,
        "lat": 43.4197109,
        "lon": -4.7521197,
        "tags": {
          "amenity": "restaurant",
          "cuisine": "regional",
          "name": "La Cueva",
          "_amenity_query": "restaurant"
        }
      },
      {
        "type": "node",
        "id": 489290750,
        "lat": 43.4200809,
        "lon": -4.7511306,
        "tags": {
          "amenity": "restaurant",
          "cuisine": "regional",
          "name": "El Salero",
          "_amenity_query": "restaurant"
        }
      },
      {
        "type": "node",
        "id": 490970918,
        "lat": 43.4123164,
        "lon": -4.7647108,
        "tags": {
          "amenity": "restaurant",
          "cuisine": "regional",
          "name": "El Retiro",
          "stars": "1",
          "_amenity_query": "restaurant"
        }
      },
      {
        "type": "node",
        "id": 490970920,
        "lat": 43.4119716,
        "lon": -4.7616442,
        "tags": {
          "amenity": "restaurant",
          "cuisine": "regional",
          "name": "El Cuetu",
          "_amenity_query": "restaurant"
        }
      },
      {
        "type": "node",
        "id": 492188343,
        "lat": 43.3865245,
        "lon": -4.9440688,
        "tags": {
          "amenity": "restaurant",
          "cuisine": "regional",
          "name": "Meson Las Cuevas",
          "_amenity_query": "restaurant"
        }
      },
      {
        "type": "node",
        "id": 492188354,
        "lat": 43.3861167,
        "lon": -4.9413415,
        "tags": {
          "amenity": "restaurant",
          "cuisine": "regional",
          "name": "Contamos Contigo",
          "_amenity_query": "restaurant"
        }
      },
      {
        "type": "node",
        "id": 492188514,
        "lat": 43.3970378,
        "lon": -4.9117701,
        "tags": {
          "amenity": "restaurant",
          "cuisine": "regional",
          "name": "Casa Moran",
          "_amenity_query": "restaurant"
        }
      },
      {
        "type": "node",
        "id": 492188529,
        "lat": 43.3842315,
        "lon": -4.9085157,
        "tags": {
          "amenity": "restaurant",
          "cuisine": "regional",
          "name": "Picu L'Salgar",
          "_amenity_query": "restaurant"
        }
      },
      {
        "type": "node",
        "id": 492192444,
        "lat": 43.3777339,
        "lon": -4.8864311,
        "tags": {
          "amenity": "restaurant",
          "cuisine": "regional",
          "name": "El Sucon",
          "_amenity_query": "restaurant"
        }
      },
      {
        "type": "node",
        "id": 497220018,
        "lat": 43.3902447,
        "lon": -5.1857136,
        "tags": {
          "addr:city": "Arriondas",
          "addr:housename": "El Mirador",
          "addr:postcode": "33540",
          "addr:street": "La Peruyal 1",
          "amenity": "restaurant",
          "check_date": "2025-04-06",
          "cuisine": "regional",
          "name": "Sidrería El Mirador",
          "opening_hours": "Th-Tu 12:00-24:00",
          "_amenity_query": "restaurant"
        }
      },
      {
        "type": "node",
        "id": 498359247,
        "lat": 43.4114578,
        "lon": -4.7357646,
        "tags": {
          "amenity": "restaurant",
          "cuisine": "regional",
          "name": "La Espuela",
          "_amenity_query": "restaurant"
        }
      },
      {
        "type": "node",
        "id": 498359299,
        "lat": 43.4144234,
        "lon": -4.731464,
        "tags": {
          "amenity": "restaurant",
          "cuisine": "regional",
          "name": "Migal",
          "_amenity_query": "restaurant"
        }
      },
      {
        "type": "node",
        "id": 501833054,
        "lat": 43.4356926,
        "lon": -4.8377531,
        "tags": {
          "amenity": "restaurant",
          "cuisine": "regional",
          "name": "La Parrera",
          "_amenity_query": "restaurant"
        }
      },
      {
        "type": "node",
        "id": 504038432,
        "lat": 43.4277081,
        "lon": -4.8098708,
        "tags": {
          "amenity": "restaurant",
          "cuisine": "regional",
          "name": "El Chiqui",
          "outdoor_seating": "yes",
          "_amenity_query": "restaurant"
        }
      },
      {
        "type": "node",
        "id": 504154546,
        "lat": 43.4241658,
        "lon": -4.7830018,
        "tags": {
          "addr:city": "Poo de Llanes",
          "amenity": "restaurant",
          "cuisine": "regional",
          "name": "Xagarda",
          "_amenity_query": "restaurant"
        }
      },
      {
        "type": "node",
        "id": 505062673,
        "lat": 43.3967661,
        "lon": -4.6377078,
        "tags": {
          "amenity": "restaurant",
          "name": "Mesón El Rubino",
          "_amenity_query": "restaurant"
        }
      },
      {
        "type": "node",
        "id": 506643054,
        "lat": 43.3985671,
        "lon": -4.6860826,
        "tags": {
          "amenity": "restaurant",
          "cuisine": "regional",
          "name": "Casa Poli",
          "_amenity_query": "restaurant"
        }
      },
      {
        "type": "node",
        "id": 512316920,
        "lat": 43.3996106,
        "lon": -4.735658,
        "tags": {
          "amenity": "restaurant",
          "check_date": "2025-03-08",
          "cuisine": "regional",
          "name": "Europa",
          "_amenity_query": "restaurant"
        }
      },
      {
        "type": "node",
        "id": 512356232,
        "lat": 43.3975709,
        "lon": -4.7339308,
        "tags": {
          "air_conditioning": "yes",
          "amenity": "restaurant",
          "cuisine": "grill",
          "indoor_seating": "yes",
          "name": "La Veguca",
          "outdoor_seating": "yes",
          "_amenity_query": "restaurant"
        }
      },
      {
        "type": "node",
        "id": 512356238,
        "lat": 43.3967425,
        "lon": -4.7317779,
        "tags": {
          "amenity": "restaurant",
          "check_date": "2025-03-08",
          "cuisine": "regional",
          "name": "Mesón La Roza",
          "_amenity_query": "restaurant"
        }
      },
      {
        "type": "node",
        "id": 513602074,
        "lat": 43.417988,
        "lon": -4.7519283,
        "tags": {
          "amenity": "restaurant",
          "cuisine": "regional",
          "name": "Macram",
          "_amenity_query": "restaurant"
        }
      },
      {
        "type": "node",
        "id": 516581038,
        "lat": 43.406507,
        "lon": -4.7218049,
        "tags": {
          "amenity": "restaurant",
          "cuisine": "regional",
          "name": "La Arcea",
          "_amenity_query": "restaurant"
        }
      },
      {
        "type": "node",
        "id": 522808646,
        "lat": 43.4331959,
        "lon": -4.8127421,
        "tags": {
          "amenity": "restaurant",
          "cuisine": "regional",
          "name": "El Borizu",
          "_amenity_query": "restaurant"
        }
      },
      {
        "type": "node",
        "id": 522808647,
        "lat": 43.4254935,
        "lon": -4.8133261,
        "tags": {
          "amenity": "restaurant",
          "name": "Restaurante El Arco",
          "_amenity_query": "restaurant"
        }
      },
      {
        "type": "node",
        "id": 522815138,
        "lat": 43.4296825,
        "lon": -4.8093521,
        "tags": {
          "amenity": "restaurant",
          "name": "Villamar",
          "_amenity_query": "restaurant"
        }
      },
      {
        "type": "node",
        "id": 522815144,
        "lat": 43.4299196,
        "lon": -4.8095771,
        "tags": {
          "amenity": "restaurant",
          "cuisine": "regional",
          "name": "Castru El Gaiteru",
          "_amenity_query": "restaurant"
        }
      },
      {
        "type": "node",
        "id": 530207046,
        "lat": 43.4810388,
        "lon": -5.4326581,
        "tags": {
          "addr:housenumber": "25A",
          "addr:postcode": "33300",
          "addr:street": "Plaza del Ayuntamiento / Plaza del Güevu",
          "amenity": "restaurant",
          "cuisine": "regional",
          "name": "Sidrería El Congreso",
          "_amenity_query": "restaurant"
        }
      },
      {
        "type": "node",
        "id": 635947412,
        "lat": 43.4253614,
        "lon": -4.8586752,
        "tags": {
          "amenity": "restaurant",
          "_amenity_query": "restaurant"
        }
      },
      {
        "type": "node",
        "id": 660472252,
        "lat": 43.570674,
        "lon": -6.9441683,
        "tags": {
          "addr:city": "Tapia de Casariego",
          "addr:housenumber": "2",
          "addr:postcode": "33740",
          "addr:street": "Calle Marques de Casariego",
          "amenity": "restaurant",
          "name": "El Bote",
          "website": "http://www.RestauranteElBote.com/",
          "_amenity_query": "restaurant"
        }
      },
      {
        "type": "node",
        "id": 673425611,
        "lat": 43.3710057,
        "lon": -5.8299307,
        "tags": {
          "addr:city": "Oviedo",
          "amenity": "restaurant",
          "cuisine": "japanese",
          "level": "1",
          "name": "Sushitokyo",
          "wheelchair": "yes",
          "_amenity_query": "restaurant"
        }
      },
      {
        "type": "node",
        "id": 707060153,
        "lat": 43.5398663,
        "lon": -5.9026003,
        "tags": {
          "amenity": "restaurant",
          "name": "Sidreria El Corcho",
          "_amenity_query": "restaurant"
        }
      },
      {
        "type": "node",
        "id": 812335400,
        "lat": 43.5632375,
        "lon": -6.8411341,
        "tags": {
          "amenity": "restaurant",
          "cuisine": "regional",
          "name": "La Taberna",
          "opening_hours": "Tu-Su 11:00-16:00,19:00-00:00",
          "smoking": "outside",
          "_amenity_query": "restaurant"
        }
      },
      {
        "type": "node",
        "id": 824369457,
        "lat": 43.4117169,
        "lon": -6.1585897,
        "tags": {
          "amenity": "restaurant",
          "cuisine": "regional",
          "diet:gluten_free": "yes",
          "indoor_seating": "yes",
          "internet_access": "wlan",
          "name": "Mesón Dany",
          "outdoor_seating": "yes",
          "phone": "+34 985834441",
          "_amenity_query": "restaurant"
        }
      },
      {
        "type": "node",
        "id": 826801388,
        "lat": 43.3343476,
        "lon": -6.4037181,
        "tags": {
          "amenity": "restaurant",
          "name": "Meson Pajulon",
          "_amenity_query": "restaurant"
        }
      },
      {
        "type": "node",
        "id": 828397577,
        "lat": 43.2114861,
        "lon": -6.9043219,
        "tags": {
          "amenity": "restaurant",
          "diet:vegetarian": "no",
          "indoor_seating": "yes",
          "name": "La Parrilla",
          "outdoor_seating": "yes",
          "wheelchair": "yes",
          "_amenity_query": "restaurant"
        }
      },
      {
        "type": "node",
        "id": 839155793,
        "lat": 43.4090468,
        "lon": -6.2567586,
        "tags": {
          "amenity": "restaurant",
          "name": "Casa Pacita",
          "_amenity_query": "restaurant"
        }
      },
      {
        "type": "node",
        "id": 839489791,
        "lat": 43.2546237,
        "lon": -6.0139613,
        "tags": {
          "addr:street": "CR AS-228 14,3",
          "amenity": "restaurant",
          "brand": "Repsol",
          "brand:wikidata": "Q174747",
          "brand:wikipedia": "es:Repsol",
          "fuel:diesel": "yes",
          "name": "El Manantial",
          "opening_hours": "Mo,We-Fr 08:00-14:00,16:30-20:00;Tu 08:00-14:00;Sa 09:00-14:00,17:00-20:00;Su 09:00-14:00",
          "operator": "Repsol",
          "source": "Ministerio de Industria, Turismo y Comercio",
          "source:date": "2010-08-06",
          "_amenity_query": "restaurant"
        }
      },
      {
        "type": "node",
        "id": 840024660,
        "lat": 43.3334893,
        "lon": -6.4162467,
        "tags": {
          "addr:city": "Tineo/Tinéu",
          "amenity": "restaurant",
          "cuisine": "regional",
          "indoor_seating": "yes",
          "name": "El Refugio",
          "outdoor_seating": "yes",
          "_amenity_query": "restaurant"
        }
      },
      {
        "type": "node",
        "id": 840029857,
        "lat": 43.3337014,
        "lon": -6.416458,
        "tags": {
          "addr:city": "Tineo/Tinéu",
          "amenity": "restaurant",
          "name": "Mesón Cervantes",
          "_amenity_query": "restaurant"
        }
      },
      {
        "type": "node",
        "id": 856534268,
        "lat": 43.5450811,
        "lon": -6.5326711,
        "tags": {
          "amenity": "restaurant",
          "name": "El Barómetro",
          "_amenity_query": "restaurant"
        }
      },
      {
        "type": "node",
        "id": 856851462,
        "lat": 43.5843788,
        "lon": -5.8962112,
        "tags": {
          "amenity": "restaurant",
          "name": "El Rexidor",
          "_amenity_query": "restaurant"
        }
      },
      {
        "type": "node",
        "id": 893547339,
        "lat": 43.0626331,
        "lon": -5.3925745,
        "tags": {
          "amenity": "restaurant",
          "name": "Fuentes de Invierno",
          "_amenity_query": "restaurant"
        }
      },
      {
        "type": "node",
        "id": 893573810,
        "lat": 43.0655217,
        "lon": -5.3882286,
        "tags": {
          "addr:city": "La Raya",
          "amenity": "restaurant",
          "name": "La Braña",
          "website": "https://hrlabrana.com/",
          "_amenity_query": "restaurant"
        }
      },
      {
        "type": "node",
        "id": 917993263,
        "lat": 43.5304573,
        "lon": -5.6496765,
        "tags": {
          "addr:city": "Gijón/Xixón",
          "amenity": "restaurant",
          "name": "Restaurante El Conde",
          "_amenity_query": "restaurant"
        }
      },
      {
        "type": "node",
        "id": 919323186,
        "lat": 43.4137429,
        "lon": -4.8811036,
        "tags": {
          "amenity": "restaurant",
          "name": "Altu Caxiga",
          "_amenity_query": "restaurant"
        }
      },
      {
        "type": "node",
        "id": 921312948,
        "lat": 43.4313498,
        "lon": -4.8092448,
        "tags": {
          "amenity": "restaurant",
          "name": "Club Marítimo",
          "_amenity_query": "restaurant"
        }
      },
      {
        "type": "node",
        "id": 921317524,
        "lat": 43.4310001,
        "lon": -4.8085169,
        "tags": {
          "amenity": "restaurant",
          "name": "Vinoteca-Restaurante La Tertulia",
          "_amenity_query": "restaurant"
        }
      },
      {
        "type": "node",
        "id": 950757294,
        "lat": 43.5403989,
        "lon": -5.6814872,
        "tags": {
          "amenity": "restaurant",
          "name": "Sidrería Crisol",
          "wheelchair": "yes",
          "_amenity_query": "restaurant"
        }
      },
      {
        "type": "node",
        "id": 950757297,
        "lat": 43.540442,
        "lon": -5.6818331,
        "tags": {
          "amenity": "restaurant",
          "name": "La Carreña",
          "_amenity_query": "restaurant"
        }
      },
      {
        "type": "node",
        "id": 950757300,
        "lat": 43.5402315,
        "lon": -5.6812011,
        "tags": {
          "amenity": "restaurant",
          "name": "La rural",
          "source": "PNOA;survey",
          "source:date": "2009",
          "_amenity_query": "restaurant"
        }
      },
      {
        "type": "node",
        "id": 966991154,
        "lat": 43.3888135,
        "lon": -4.5413449,
        "tags": {
          "amenity": "restaurant",
          "cuisine": "regional",
          "name": "Parrilla El Mansolea",
          "_amenity_query": "restaurant"
        }
      },
      {
        "type": "node",
        "id": 978073687,
        "lat": 43.5419196,
        "lon": -5.6683734,
        "tags": {
          "amenity": "restaurant",
          "cuisine": "spanish",
          "name": "Benita",
          "_amenity_query": "restaurant"
        }
      },
      {
        "type": "node",
        "id": 988995150,
        "lat": 43.2349172,
        "lon": -4.8194628,
        "tags": {
          "addr:city": "Bulnes",
          "amenity": "restaurant",
          "bar": "yes",
          "contact:email": "rafa@elredondin.com",
          "contact:facebook": "https://www.facebook.com/elredondin/",
          "name": "El Redondín Casa Rafa",
          "outdoor_seating": "yes",
          "phone": "+34 985 84 59 45",
          "website": "http://www.elredondin.com/",
          "_amenity_query": "restaurant"
        }
      },
      {
        "type": "node",
        "id": 1001588436,
        "lat": 43.5415003,
        "lon": -5.6662088,
        "tags": {
          "amenity": "restaurant",
          "cuisine": "regional",
          "name": "Casa Victor",
          "_amenity_query": "restaurant"
        }
      },
      {
        "type": "node",
        "id": 1052453525,
        "lat": 43.5419773,
        "lon": -5.6667121,
        "tags": {
          "amenity": "restaurant",
          "cuisine": "regional",
          "name": "Pulperia Galicia",
          "_amenity_query": "restaurant"
        }
      },
      {
        "type": "node",
        "id": 1052453637,
        "lat": 43.5418666,
        "lon": -5.6666388,
        "tags": {
          "addr:city": "Gijón/Xixón",
          "addr:housenumber": "4",
          "addr:street": "Calle Almacenes",
          "amenity": "restaurant",
          "contact:facebook": "https://www.facebook.com/canteli.sidreriagijon",
          "cuisine": "regional",
          "delivery": "no",
          "name": "Sidreria Canteli",
          "outdoor_seating": "no",
          "phone": "+34 984 19 09 66",
          "smoking": "outside",
          "wheelchair": "limited",
          "_amenity_query": "restaurant"
        }
      },
      {
        "type": "node",
        "id": 1167242276,
        "lat": 43.5451778,
        "lon": -5.6628848,
        "tags": {
          "amenity": "restaurant",
          "cuisine": "regional",
          "name": "Sidreria El Centenario",
          "smoking": "no",
          "_amenity_query": "restaurant"
        }
      },
      {
        "type": "node",
        "id": 1174675887,
        "lat": 43.2765819,
        "lon": -5.5902636,
        "tags": {
          "addr:housenumber": "16",
          "addr:postcode": "33960",
          "addr:street": "Calle de Velázquez",
          "amenity": "restaurant",
          "cuisine": "regional",
          "int_name": "Sidreria San Mames",
          "name": "Sidería San Mamés",
          "_amenity_query": "restaurant"
        }
      },
      {
        "type": "node",
        "id": 1174796764,
        "lat": 43.2761359,
        "lon": -5.5896688,
        "tags": {
          "addr:housenumber": "17",
          "addr:postcode": "33960",
          "addr:street": "Avenida de Bimenes",
          "amenity": "restaurant",
          "cuisine": "regional",
          "int_name": "Sidreria El Trus",
          "name": "Sidrería El Trus",
          "_amenity_query": "restaurant"
        }
      },
      {
        "type": "node",
        "id": 1243632586,
        "lat": 43.5414993,
        "lon": -5.6749788,
        "tags": {
          "addr:city": "Gijón/Xixón",
          "amenity": "restaurant",
          "cuisine": "regional",
          "name": "Tierra Astur",
          "smoking": "no",
          "wheelchair": "yes",
          "_amenity_query": "restaurant"
        }
      },
      {
        "type": "node",
        "id": 1270698780,
        "lat": 43.2037031,
        "lon": -6.007612,
        "tags": {
          "addr:city": "Aciera",
          "amenity": "restaurant",
          "name": "Sol´Horrín",
          "tourism": "hostel",
          "_amenity_query": "restaurant"
        }
      },
      {
        "type": "node",
        "id": 1272058316,
        "lat": 43.4198254,
        "lon": -4.7519252,
        "tags": {
          "amenity": "restaurant",
          "cuisine": "pizza",
          "name": "Lo Compuerto",
          "_amenity_query": "restaurant"
        }
      },
      {
        "type": "node",
        "id": 1272058321,
        "lat": 43.4197997,
        "lon": -4.7543816,
        "tags": {
          "amenity": "restaurant",
          "cuisine": "regional",
          "name": "Bar Uría",
          "smoking": "no",
          "_amenity_query": "restaurant"
        }
      },
      {
        "type": "node",
        "id": 1272058322,
        "lat": 43.4198974,
        "lon": -4.7542366,
        "tags": {
          "amenity": "restaurant",
          "cuisine": "regional",
          "name": "Bar Colón",
          "smoking": "no",
          "_amenity_query": "restaurant"
        }
      },
      {
        "type": "node",
        "id": 1272072333,
        "lat": 43.4102588,
        "lon": -4.754855,
        "tags": {
          "amenity": "restaurant",
          "name": "Alonso",
          "smoking": "no",
          "_amenity_query": "restaurant"
        }
      },
      {
        "type": "node",
        "id": 1279680139,
        "lat": 43.5425212,
        "lon": -5.665101,
        "tags": {
          "amenity": "restaurant",
          "name": "Platero",
          "smoking": "no",
          "_amenity_query": "restaurant"
        }
      },
      {
        "type": "node",
        "id": 1300237456,
        "lat": 43.5451723,
        "lon": -5.6625166,
        "tags": {
          "addr:city": "Gijón/Xixón",
          "amenity": "restaurant",
          "cuisine": "regional",
          "entrance": "main",
          "name": "Sidreria La Galana",
          "smoking": "no",
          "_amenity_query": "restaurant"
        }
      },
      {
        "type": "node",
        "id": 1300237478,
        "lat": 43.5451825,
        "lon": -5.6631603,
        "tags": {
          "amenity": "restaurant",
          "cuisine": "regional",
          "name": "Bar Inn",
          "smoking": "no",
          "_amenity_query": "restaurant"
        }
      },
      {
        "type": "node",
        "id": 1305779620,
        "lat": 43.420195,
        "lon": -4.7557879,
        "tags": {
          "amenity": "restaurant",
          "name": "El Taller",
          "smoking": "no",
          "_amenity_query": "restaurant"
        }
      },
      {
        "type": "node",
        "id": 1307532292,
        "lat": 43.4197709,
        "lon": -4.755272,
        "tags": {
          "amenity": "restaurant",
          "cuisine": "regional",
          "name": "Sidrería El Cuera",
          "smoking": "no",
          "_amenity_query": "restaurant"
        }
      },
      {
        "type": "node",
        "id": 1308776575,
        "lat": 43.4206973,
        "lon": -4.7536437,
        "tags": {
          "amenity": "restaurant",
          "cuisine": "regional",
          "name": "Meson El Galeon",
          "_amenity_query": "restaurant"
        }
      },
      {
        "type": "node",
        "id": 1308776633,
        "lat": 43.4206706,
        "lon": -4.7537201,
        "tags": {
          "amenity": "restaurant",
          "cuisine": "regional",
          "name": "La Casona",
          "_amenity_query": "restaurant"
        }
      },
      {
        "type": "node",
        "id": 1308919956,
        "lat": 43.4205613,
        "lon": -4.7541039,
        "tags": {
          "amenity": "restaurant",
          "cuisine": "regional",
          "name": "El Bodegon",
          "smoking": "no",
          "_amenity_query": "restaurant"
        }
      },
      {
        "type": "node",
        "id": 1308919984,
        "lat": 43.4203722,
        "lon": -4.7542934,
        "tags": {
          "amenity": "restaurant",
          "cuisine": "pizza",
          "name": "La Fontana",
          "_amenity_query": "restaurant"
        }
      },
      {
        "type": "node",
        "id": 1308920004,
        "lat": 43.4202581,
        "lon": -4.7541905,
        "tags": {
          "amenity": "restaurant",
          "cuisine": "regional",
          "name": "Siete Puertas",
          "_amenity_query": "restaurant"
        }
      },
      {
        "type": "node",
        "id": 1310197699,
        "lat": 43.4208679,
        "lon": -4.7534584,
        "tags": {
          "amenity": "restaurant",
          "cuisine": "regional",
          "name": "Jota Jota",
          "smoking": "no",
          "_amenity_query": "restaurant"
        }
      },
      {
        "type": "node",
        "id": 1312746863,
        "lat": 43.4203413,
        "lon": -4.7545296,
        "tags": {
          "amenity": "restaurant",
          "cuisine": "regional",
          "name": "Puertu Chicu",
          "_amenity_query": "restaurant"
        }
      },
      {
        "type": "node",
        "id": 1312746864,
        "lat": 43.4202336,
        "lon": -4.7543741,
        "tags": {
          "amenity": "restaurant",
          "cuisine": "regional",
          "name": "El Pescador",
          "_amenity_query": "restaurant"
        }
      },
      {
        "type": "node",
        "id": 1312746870,
        "lat": 43.420045,
        "lon": -4.7542947,
        "tags": {
          "amenity": "restaurant",
          "cuisine": "regional",
          "name": "Covadonga",
          "_amenity_query": "restaurant"
        }
      },
      {
        "type": "node",
        "id": 1312746873,
        "lat": 43.4199655,
        "lon": -4.7542576,
        "tags": {
          "amenity": "restaurant",
          "cuisine": "regional",
          "name": "Casa Canene",
          "_amenity_query": "restaurant"
        }
      },
      {
        "type": "node",
        "id": 1399706847,
        "lat": 43.3344624,
        "lon": -4.9689708,
        "tags": {
          "addr:city": "Benia de Onís",
          "amenity": "restaurant",
          "bar": "yes",
          "contact:email": "info@sidreriamoreno.com",
          "contact:facebook": "https://es-la.facebook.com/www.casamoreno.es/",
          "cuisine": "regional",
          "name": "Sidrería Moreno",
          "outdoor_seating": "yes",
          "phone": "+34 985 84 40 07",
          "takeaway": "yes",
          "website": "https://www.sidreriamoreno.com/",
          "_amenity_query": "restaurant"
        }
      },
      {
        "type": "node",
        "id": 1399706873,
        "lat": 43.3344596,
        "lon": -4.9687539,
        "tags": {
          "addr:city": "Benia de Onís",
          "amenity": "restaurant",
          "bar": "yes",
          "contact:email": "pepitojevi@gmail.com",
          "contact:facebook": "https://www.facebook.com/parrillalahuerta",
          "contact:mobile": "+34 686 68 30 45",
          "cuisine": "regional",
          "name": "Parrilla la Huerta",
          "outdoor_seating": "yes",
          "takeaway": "yes",
          "_amenity_query": "restaurant"
        }
      },
      {
        "type": "node",
        "id": 1402644541,
        "lat": 43.5668241,
        "lon": -6.1512275,
        "tags": {
          "amenity": "restaurant",
          "name": "La Rula",
          "source": "survey",
          "_amenity_query": "restaurant"
        }
      },
      {
        "type": "node",
        "id": 1420380279,
        "lat": 43.4109525,
        "lon": -7.1434193,
        "tags": {
          "addr:city": "O Chao",
          "addr:postcode": "33774",
          "addr:street": "Calle General Aranda",
          "amenity": "restaurant",
          "cuisine": "regional",
          "name": "Restaurante Amaído",
          "phone": "+34 985 476 394",
          "source": "survey",
          "website": "https://www.amaido.com/",
          "_amenity_query": "restaurant"
        }
      },
      {
        "type": "node",
        "id": 1423785087,
        "lat": 43.4640343,
        "lon": -7.0471683,
        "tags": {
          "amenity": "restaurant",
          "name": "San Roque",
          "tourism": "guest_house",
          "_amenity_query": "restaurant"
        }
      },
      {
        "type": "node",
        "id": 1423785167,
        "lat": 43.4658264,
        "lon": -7.0509137,
        "tags": {
          "addr:city": "Vegadeo",
          "addr:postcode": "33770",
          "amenity": "restaurant",
          "_amenity_query": "restaurant"
        }
      },
      {
        "type": "node",
        "id": 1425964327,
        "lat": 43.4125765,
        "lon": -7.149392,
        "tags": {
          "addr:city": "A Carretera",
          "addr:postcode": "33774",
          "amenity": "restaurant",
          "name": "Restaurante San Isidro",
          "phone": "+34 985 476 581",
          "source": "survey",
          "_amenity_query": "restaurant"
        }
      },
      {
        "type": "node",
        "id": 1426500404,
        "lat": 43.360655,
        "lon": -7.1080597,
        "tags": {
          "addr:city": "Taramundi",
          "addr:postcode": "33775",
          "addr:street": "Plaza del Campo",
          "amenity": "restaurant",
          "bar": "yes",
          "email": "attcliente@hotelpetronila.es",
          "name": "Casa Petronila",
          "phone": "+34 985 646 874",
          "_amenity_query": "restaurant"
        }
      },
      {
        "type": "node",
        "id": 1429210332,
        "lat": 43.3285778,
        "lon": -7.0850369,
        "tags": {
          "addr:city": "As Veigas",
          "addr:postcode": "33775",
          "amenity": "restaurant",
          "cuisine": "regional;asturian",
          "name": "Mesón Sidrería As Veigas",
          "phone": "+34985979973",
          "source": "survey",
          "_amenity_query": "restaurant"
        }
      },
      {
        "type": "node",
        "id": 1430553073,
        "lat": 43.5287094,
        "lon": -7.0310668,
        "tags": {
          "addr:city": "Castropol",
          "addr:postcode": "33760",
          "addr:street": "Paseo del Muelle",
          "amenity": "restaurant",
          "cuisine": "regional",
          "name": "Mesón La Santina",
          "source": "survey",
          "_amenity_query": "restaurant"
        }
      },
      {
        "type": "node",
        "id": 1430553081,
        "lat": 43.5275686,
        "lon": -7.0316335,
        "tags": {
          "addr:city": "Castropol",
          "addr:postcode": "33760",
          "addr:street": "Paseo del Muelle",
          "amenity": "restaurant",
          "cuisine": "regional",
          "name": "Restaurante Risón",
          "source": "survey",
          "_amenity_query": "restaurant"
        }
      },
      {
        "type": "node",
        "id": 1436625943,
        "lat": 43.4638991,
        "lon": -7.0500621,
        "tags": {
          "amenity": "restaurant",
          "_amenity_query": "restaurant"
        }
      },
      {
        "type": "node",
        "id": 1606834527,
        "lat": 43.5500371,
        "lon": -6.8277698,
        "tags": {
          "addr:housenumber": "2",
          "addr:postcode": "33750",
          "addr:street": "Calle Pelayo",
          "amenity": "restaurant",
          "cuisine": "regional",
          "delivery": "no",
          "name": "Restaurante El Pozo",
          "old_name": "Bodegón El Pozo",
          "opening_hours": "Th-Tu 08:00-24:00",
          "outdoor_seating": "yes",
          "phone": "+34 985 63 71 01",
          "smoking": "outside",
          "takeaway": "yes",
          "_amenity_query": "restaurant"
        }
      },
      {
        "type": "node",
        "id": 1696459623,
        "lat": 43.4325407,
        "lon": -4.8102463,
        "tags": {
          "amenity": "restaurant",
          "_amenity_query": "restaurant"
        }
      },
      {
        "type": "node",
        "id": 1710118951,
        "lat": 43.3125019,
        "lon": -5.6920484,
        "tags": {
          "addr:city": "Langreo / Llangréu",
          "addr:housenumber": "20",
          "addr:postcode": "33930",
          "addr:street": "Calle Daniel Álvarez González",
          "amenity": "restaurant",
          "cuisine": "regional",
          "name": "Sidrería Viejo",
          "outdoor_seating": "yes",
          "phone": "+34 985 676 340",
          "website": "https://sidreriaviejo.es/",
          "_amenity_query": "restaurant"
        }
      },
      {
        "type": "node",
        "id": 1715052433,
        "lat": 43.4629363,
        "lon": -5.0568913,
        "tags": {
          "addr:housenumber": "3",
          "addr:postcode": "33560",
          "addr:street": "Calle Manuel Fernández Junco",
          "amenity": "restaurant",
          "cuisine": "regional",
          "name": "Bocca Café",
          "phone": "+34 633 66 18 07",
          "_amenity_query": "restaurant"
        }
      },
      {
        "type": "node",
        "id": 1744690861,
        "lat": 43.4361347,
        "lon": -5.7981847,
        "tags": {
          "amenity": "restaurant",
          "name": "Area de Servicio Robledo",
          "_amenity_query": "restaurant"
        }
      },
      {
        "type": "node",
        "id": 1744690862,
        "lat": 43.4373269,
        "lon": -5.7992926,
        "tags": {
          "amenity": "restaurant",
          "name": "Area de Servicio Robledo",
          "_amenity_query": "restaurant"
        }
      },
      {
        "type": "node",
        "id": 1752395425,
        "lat": 43.5423699,
        "lon": -5.6676857,
        "tags": {
          "addr:housenumber": "25",
          "addr:street": "Calle Rodríguez San Pedro",
          "amenity": "restaurant",
          "cuisine": "italian",
          "name": "al Boccalino",
          "website": "http://www.alboccalino.es",
          "wheelchair": "limited",
          "_amenity_query": "restaurant"
        }
      },
      {
        "type": "node",
        "id": 1757399334,
        "lat": 43.4841111,
        "lon": -5.2714907,
        "tags": {
          "addr:city": "Colunga",
          "amenity": "restaurant",
          "cuisine": "regional",
          "name": "Restaurante Casa Laureano",
          "_amenity_query": "restaurant"
        }
      },
      {
        "type": "node",
        "id": 1757399335,
        "lat": 43.4844337,
        "lon": -5.2729764,
        "tags": {
          "amenity": "restaurant",
          "cuisine": "regional",
          "name": "Restaurante El Mesón",
          "_amenity_query": "restaurant"
        }
      },
      {
        "type": "node",
        "id": 1757399336,
        "lat": 43.4840809,
        "lon": -5.27334,
        "tags": {
          "amenity": "restaurant",
          "cuisine": "regional",
          "name": "Restaurante La Taberna",
          "_amenity_query": "restaurant"
        }
      },
      {
        "type": "node",
        "id": 1772505054,
        "lat": 43.5351288,
        "lon": -5.6658534,
        "tags": {
          "addr:city": "Gijón/Xixón",
          "addr:housenumber": "24",
          "addr:street": "Calle del Decano Prendes Pando",
          "amenity": "restaurant",
          "name": "El Cencerro",
          "website": "http://www.tabernaelcencerro.es/",
          "_amenity_query": "restaurant"
        }
      },
      {
        "type": "node",
        "id": 1772509681,
        "lat": 43.5340108,
        "lon": -5.6645785,
        "tags": {
          "addr:street": "Calle San José",
          "amenity": "restaurant",
          "name": "El Carruaje",
          "_amenity_query": "restaurant"
        }
      },
      {
        "type": "node",
        "id": 1772552142,
        "lat": 43.307458,
        "lon": -5.6905274,
        "tags": {
          "addr:street": "Julián Duro",
          "amenity": "restaurant",
          "cuisine": "spanish",
          "name": "La Corrá de Vinos",
          "outdoor_seating": "yes",
          "smoking": "outside",
          "wheelchair": "no",
          "_amenity_query": "restaurant"
        }
      },
      {
        "type": "node",
        "id": 1792968401,
        "lat": 43.4394403,
        "lon": -4.8933599,
        "tags": {
          "addr:city": "Naves",
          "amenity": "restaurant",
          "cuisine": "spanish",
          "name": "El Cabañon",
          "phone": "+34 985 407 550",
          "_amenity_query": "restaurant"
        }
      },
      {
        "type": "node",
        "id": 1794549883,
        "lat": 43.4365511,
        "lon": -4.8416644,
        "tags": {
          "amenity": "restaurant",
          "cuisine": "spanish",
          "name": "El Buzu",
          "_amenity_query": "restaurant"
        }
      },
      {
        "type": "node",
        "id": 1794549905,
        "lat": 43.436742,
        "lon": -4.840849,
        "tags": {
          "amenity": "restaurant",
          "cuisine": "spanish",
          "name": "San Pelayo",
          "_amenity_query": "restaurant"
        }
      },
      {
        "type": "node",
        "id": 1799748258,
        "lat": 43.4222823,
        "lon": -4.7525559,
        "tags": {
          "amenity": "restaurant",
          "cuisine": "regional",
          "name": "Sablon's",
          "_amenity_query": "restaurant"
        }
      },
      {
        "type": "node",
        "id": 1872383007,
        "lat": 43.5385461,
        "lon": -5.6684143,
        "tags": {
          "addr:city": "Gijón/Xixón",
          "addr:housenumber": "16",
          "addr:street": "Calle Luanco",
          "amenity": "restaurant",
          "contact:facebook": "https://www.facebook.com/pages/SIDRERIA-EL-TRASGU-FARTON/206367342715464",
          "cuisine": "regional",
          "name": "El Trasgu Fartón",
          "_amenity_query": "restaurant"
        }
      },
      {
        "type": "node",
        "id": 1893726692,
        "lat": 43.544164,
        "lon": -5.668816,
        "tags": {
          "addr:city": "Gijón/Xixón",
          "amenity": "restaurant",
          "name": "Las Candelas",
          "wheelchair": "yes",
          "_amenity_query": "restaurant"
        }
      },
      {
        "type": "node",
        "id": 1893747657,
        "lat": 43.544568,
        "lon": -5.663961,
        "tags": {
          "addr:housenumber": "2",
          "addr:postcode": "33201",
          "addr:street": "Muelle de Oriente",
          "amenity": "restaurant",
          "cuisine": "italian",
          "name": "Carbone (de Vesuvio)",
          "opening_hours": "Mo-Su 13:00-16:00, 20:00-23:55",
          "phone": "+34 985 349 971",
          "website": "https://carbonegijon.com/",
          "_amenity_query": "restaurant"
        }
      },
      {
        "type": "node",
        "id": 1893749869,
        "lat": 43.5470515,
        "lon": -5.6656941,
        "tags": {
          "amenity": "restaurant",
          "indoor_seating": "yes",
          "name": "El Mercante",
          "outdoor_seating": "yes",
          "_amenity_query": "restaurant"
        }
      },
      {
        "type": "node",
        "id": 1893753182,
        "lat": 43.5471454,
        "lon": -5.665812,
        "tags": {
          "addr:city": "Gijón/Xixón",
          "amenity": "restaurant",
          "name": "Las Ballenas",
          "_amenity_query": "restaurant"
        }
      },
      {
        "type": "node",
        "id": 1894963749,
        "lat": 43.533692,
        "lon": -5.666144,
        "tags": {
          "amenity": "restaurant",
          "name": "Arroyo",
          "_amenity_query": "restaurant"
        }
      },
      {
        "type": "node",
        "id": 1894964471,
        "lat": 43.5340082,
        "lon": -5.6662819,
        "tags": {
          "addr:housenumber": "6",
          "addr:postcode": "33208",
          "addr:street": "Calle Bobes",
          "amenity": "restaurant",
          "cuisine": "fish;regional;seafood;tapas;local",
          "name": "Galastur",
          "_amenity_query": "restaurant"
        }
      },
      {
        "type": "node",
        "id": 1927813825,
        "lat": 43.5365994,
        "lon": -5.6620249,
        "tags": {
          "amenity": "restaurant",
          "name": "La Costa",
          "opening_hours": "Th-Tu 11:30-16:00; Th-Mo 20:00-24:00",
          "_amenity_query": "restaurant"
        }
      },
      {
        "type": "node",
        "id": 1931199838,
        "lat": 43.3971879,
        "lon": -4.6640413,
        "tags": {
          "amenity": "restaurant",
          "cuisine": "spanish",
          "name": "El Rubiu",
          "_amenity_query": "restaurant"
        }
      },
      {
        "type": "node",
        "id": 1939665717,
        "lat": 43.3147518,
        "lon": -5.9552079,
        "tags": {
          "amenity": "restaurant",
          "name": "Casa Inés",
          "_amenity_query": "restaurant"
        }
      },
      {
        "type": "node",
        "id": 1955575381,
        "lat": 43.545302,
        "lon": -6.3937467,
        "tags": {
          "addr:city": "Cadavedo",
          "amenity": "restaurant",
          "cuisine": "regional",
          "internet_access": "wlan",
          "internet_access:fee": "no",
          "name": "Mesón la Granda",
          "_amenity_query": "restaurant"
        }
      },
      {
        "type": "node",
        "id": 1955650510,
        "lat": 43.5447772,
        "lon": -6.3900055,
        "tags": {
          "addr:city": "Cadavedo",
          "amenity": "restaurant",
          "cuisine": "regional",
          "name": "El Salon",
          "_amenity_query": "restaurant"
        }
      },
      {
        "type": "node",
        "id": 1955670582,
        "lat": 43.5466394,
        "lon": -6.3863358,
        "tags": {
          "addr:city": "Cadavedo",
          "amenity": "restaurant",
          "name": "Casa Roja",
          "stars": "3",
          "tourism": "hotel",
          "website": "https://hotelcasaroja.com/",
          "_amenity_query": "restaurant"
        }
      },
      {
        "type": "node",
        "id": 1955670697,
        "lat": 43.5490845,
        "lon": -6.3844799,
        "tags": {
          "addr:city": "Cadavedo",
          "amenity": "restaurant",
          "cuisine": "regional",
          "name": "Regalina",
          "_amenity_query": "restaurant"
        }
      },
      {
        "type": "node",
        "id": 1957296044,
        "lat": 43.5494613,
        "lon": -6.3878019,
        "tags": {
          "addr:city": "Cadavedo",
          "amenity": "restaurant",
          "cuisine": "regional",
          "name": "La Torre",
          "_amenity_query": "restaurant"
        }
      },
      {
        "type": "node",
        "id": 1965092629,
        "lat": 43.5588537,
        "lon": -6.1470829,
        "tags": {
          "amenity": "restaurant",
          "name": "El Pescador",
          "tourism": "hotel",
          "_amenity_query": "restaurant"
        }
      },
      {
        "type": "node",
        "id": 1968932926,
        "lat": 43.3614436,
        "lon": -5.8540764,
        "tags": {
          "addr:city": "Oviedo / Uviéu",
          "amenity": "restaurant",
          "check_date": "2025-12-10",
          "indoor_seating": "yes",
          "name": "Sidreria La Gran Vía",
          "outdoor_seating": "yes",
          "_amenity_query": "restaurant"
        }
      },
      {
        "type": "node",
        "id": 1969045687,
        "lat": 43.5627942,
        "lon": -6.146416,
        "tags": {
          "addr:city": "Cudillero / Cuideiru",
          "addr:postcode": "33150",
          "addr:street": "Calle Suárez Inclán",
          "amenity": "restaurant",
          "check_date": "2025-11-07",
          "cuisine": "regional",
          "name": "El Viejo Buzo",
          "_amenity_query": "restaurant"
        }
      },
      {
        "type": "node",
        "id": 1973042985,
        "lat": 43.5792663,
        "lon": -5.9528826,
        "tags": {
          "addr:city": "Salinas",
          "amenity": "restaurant",
          "_amenity_query": "restaurant"
        }
      },
      {
        "type": "node",
        "id": 1976774092,
        "lat": 43.4311951,
        "lon": -5.0616644,
        "tags": {
          "amenity": "restaurant",
          "_amenity_query": "restaurant"
        }
      },
      {
        "type": "node",
        "id": 1976774339,
        "lat": 43.4314844,
        "lon": -5.0624069,
        "tags": {
          "amenity": "restaurant",
          "name": "Rivera",
          "_amenity_query": "restaurant"
        }
      },
      {
        "type": "node",
        "id": 1978522990,
        "lat": 43.5525637,
        "lon": -6.3788735,
        "tags": {
          "amenity": "restaurant",
          "name": "Astur-Regal",
          "tourism": "hotel",
          "_amenity_query": "restaurant"
        }
      },
      {
        "type": "node",
        "id": 1981702540,
        "lat": 43.5455564,
        "lon": -6.3868103,
        "tags": {
          "addr:city": "Cadavedo",
          "amenity": "restaurant",
          "name": "Parrilla El Casino",
          "_amenity_query": "restaurant"
        }
      },
      {
        "type": "node",
        "id": 2001529993,
        "lat": 43.3796079,
        "lon": -4.6104968,
        "tags": {
          "amenity": "restaurant",
          "cuisine": "regional",
          "name": "El Rubiu",
          "_amenity_query": "restaurant"
        }
      },
      {
        "type": "node",
        "id": 2014327706,
        "lat": 43.5154034,
        "lon": -5.2683429,
        "tags": {
          "addr:city": "Lastres/Llastres",
          "amenity": "restaurant",
          "cuisine": "regional",
          "name": "Bar del Puerto",
          "_amenity_query": "restaurant"
        }
      },
      {
        "type": "node",
        "id": 2070329102,
        "lat": 43.2580928,
        "lon": -5.2015798,
        "tags": {
          "amenity": "restaurant",
          "name": "Hotel Restaurante Hermanos Pilar",
          "tourism": "hotel",
          "_amenity_query": "restaurant"
        }
      },
      {
        "type": "node",
        "id": 2078187218,
        "lat": 43.3855425,
        "lon": -5.7021499,
        "tags": {
          "amenity": "restaurant",
          "name": "Asador Las Cuevas",
          "_amenity_query": "restaurant"
        }
      },
      {
        "type": "node",
        "id": 2078187219,
        "lat": 43.3853227,
        "lon": -5.7024477,
        "tags": {
          "amenity": "restaurant",
          "name": "Las Ruedas",
          "_amenity_query": "restaurant"
        }
      },
      {
        "type": "node",
        "id": 2078187226,
        "lat": 43.3849916,
        "lon": -5.7045839,
        "tags": {
          "amenity": "restaurant",
          "name": "Sidrería Benido",
          "_amenity_query": "restaurant"
        }
      },
      {
        "type": "node",
        "id": 2078187227,
        "lat": 43.3853649,
        "lon": -5.7002882,
        "tags": {
          "amenity": "restaurant",
          "name": "Sidrería Hilario",
          "_amenity_query": "restaurant"
        }
      },
      {
        "type": "node",
        "id": 2085228813,
        "lat": 43.3678825,
        "lon": -5.8506127,
        "tags": {
          "addr:housenumber": "4",
          "addr:street": "Calle Jerónimo Ibrán",
          "amenity": "restaurant",
          "cuisine": "chinese",
          "indoor_seating": "yes",
          "name": "Joya de Oriente",
          "outdoor_seating": "no",
          "website": "https://restaurantechino.wixsite.com/joyadeoriente2012",
          "_amenity_query": "restaurant"
        }
      },
      {
        "type": "node",
        "id": 2225581146,
        "lat": 43.358762,
        "lon": -5.9203588,
        "tags": {
          "addr:city": "San Claudio/San Cloyo",
          "addr:housenumber": "10",
          "addr:postcode": "33191",
          "addr:street": "Vallina",
          "amenity": "restaurant",
          "internet_access": "no",
          "name": "Ca'San Roque",
          "outdoor_seating": "yes",
          "smoking": "outside",
          "wheelchair": "yes",
          "_amenity_query": "restaurant"
        }
      },
      {
        "type": "node",
        "id": 2244479853,
        "lat": 43.362424,
        "lon": -5.9169157,
        "tags": {
          "addr:housenumber": "31",
          "addr:postcode": "33191",
          "addr:street": "Lugar El Torollo",
          "amenity": "restaurant",
          "name": "Casa El Gaiterin",
          "outdoor_seating": "yes",
          "_amenity_query": "restaurant"
        }
      },
      {
        "type": "node",
        "id": 2244998032,
        "lat": 43.4297914,
        "lon": -5.9818014,
        "tags": {
          "amenity": "restaurant",
          "name": "Restaurante La Manduca",
          "_amenity_query": "restaurant"
        }
      },
      {
        "type": "node",
        "id": 2270460358,
        "lat": 43.3887371,
        "lon": -6.0085235,
        "tags": {
          "amenity": "restaurant",
          "name": "Casa Angelina",
          "_amenity_query": "restaurant"
        }
      },
      {
        "type": "node",
        "id": 2270479831,
        "lat": 43.3788334,
        "lon": -5.9420358,
        "tags": {
          "amenity": "restaurant",
          "name": "Restaurante Escamplero",
          "_amenity_query": "restaurant"
        }
      },
      {
        "type": "node",
        "id": 2279488921,
        "lat": 43.1582781,
        "lon": -6.1028232,
        "tags": {
          "addr:postcode": "33111",
          "amenity": "restaurant",
          "cuisine": "regional",
          "name": "Restaurante La Chabola",
          "outdoor_seating": "yes",
          "phone": "+34985764136",
          "_amenity_query": "restaurant"
        }
      },
      {
        "type": "node",
        "id": 2291428790,
        "lat": 43.5160964,
        "lon": -5.2662144,
        "tags": {
          "addr:city": "Lastres/Llastres",
          "amenity": "restaurant",
          "cuisine": "regional;seafood",
          "name": "La Rula",
          "_amenity_query": "restaurant"
        }
      },
      {
        "type": "node",
        "id": 2295893913,
        "lat": 43.3608881,
        "lon": -5.8424315,
        "tags": {
          "addr:city": "Oviedo",
          "amenity": "restaurant",
          "indoor_seating": "yes",
          "name": "Meraki",
          "outdoor_seating": "yes",
          "wheelchair": "no",
          "_amenity_query": "restaurant"
        }
      },
      {
        "type": "node",
        "id": 2298367897,
        "lat": 43.3805645,
        "lon": -5.7902731,
        "tags": {
          "amenity": "restaurant",
          "name": "La Cueva del Pulpo",
          "_amenity_query": "restaurant"
        }
      },
      {
        "type": "node",
        "id": 2298367898,
        "lat": 43.379878,
        "lon": -5.7904783,
        "tags": {
          "air_conditioning": "yes",
          "amenity": "restaurant",
          "diet:halal": "no",
          "diet:kosher": "no",
          "diet:vegan": "no",
          "diet:vegetarian": "yes",
          "indoor_seating": "yes",
          "name": "Sidrería Tierra Astur Águila",
          "outdoor_seating": "yes",
          "payment:credit_cards": "yes",
          "payment:debit_cards": "yes",
          "smoking": "outside",
          "wheelchair": "yes",
          "_amenity_query": "restaurant"
        }
      },
      {
        "type": "node",
        "id": 2298677947,
        "lat": 43.5371087,
        "lon": -5.6635198,
        "tags": {
          "amenity": "restaurant",
          "name": "Sidrería Xixón",
          "_amenity_query": "restaurant"
        }
      },
      {
        "type": "node",
        "id": 2313717010,
        "lat": 43.5416182,
        "lon": -6.102387,
        "tags": {
          "amenity": "restaurant",
          "cuisine": "regional",
          "email": "info@casazoilo.com",
          "fax": "+34 985583332",
          "microbrewery": "no",
          "name": "Restaurante Casa Zoilo - El Parador",
          "phone": "+34 985583277",
          "website": "https://casazoilo.com/",
          "_amenity_query": "restaurant"
        }
      },
      {
        "type": "node",
        "id": 2320134783,
        "lat": 43.3345476,
        "lon": -4.9695402,
        "tags": {
          "addr:city": "Benia de Onís",
          "amenity": "restaurant",
          "name": "Hotel Restaurante Casa Morán",
          "phone": "+34 985 84 40 06",
          "rooms": "21",
          "stars": "1",
          "tourism": "hotel",
          "wheelchair": "yes",
          "_amenity_query": "restaurant"
        }
      },
      {
        "type": "node",
        "id": 2337692550,
        "lat": 43.5140693,
        "lon": -5.9433963,
        "tags": {
          "amenity": "restaurant",
          "name": "Restaurante Parrilla El Blimal",
          "phone": "+34 985506322",
          "_amenity_query": "restaurant"
        }
      },
      {
        "type": "node",
        "id": 2353292667,
        "lat": 43.3689912,
        "lon": -5.8428996,
        "tags": {
          "addr:city": "Oviedo / Uviéu",
          "amenity": "restaurant",
          "name": "La Chata",
          "_amenity_query": "restaurant"
        }
      },
      {
        "type": "node",
        "id": 2353297102,
        "lat": 43.3642881,
        "lon": -5.844445,
        "tags": {
          "addr:city": "Oviedo / Uviéu",
          "amenity": "restaurant",
          "check_date": "2023-05-04",
          "indoor_seating": "yes",
          "name": "Sidrería la Pumarada",
          "outdoor_seating": "yes",
          "_amenity_query": "restaurant"
        }
      },
      {
        "type": "node",
        "id": 2353298211,
        "lat": 43.3642234,
        "lon": -5.8446305,
        "tags": {
          "addr:city": "Oviedo / Uviéu",
          "addr:housenumber": "9",
          "addr:postcode": "33001",
          "addr:street": "Calle Gascona / Cai La Gascona",
          "amenity": "restaurant",
          "check_date": "2023-05-04",
          "indoor_seating": "yes",
          "name": "Sidrería Tierra Astur Parrilla",
          "outdoor_seating": "yes",
          "_amenity_query": "restaurant"
        }
      },
      {
        "type": "node",
        "id": 2353299591,
        "lat": 43.3639087,
        "lon": -5.8441777,
        "tags": {
          "addr:housenumber": "1",
          "addr:street": "Gascona",
          "amenity": "restaurant",
          "indoor_seating": "yes",
          "name": "Sidrería Tierra Astur",
          "outdoor_seating": "yes",
          "phone": "+34 985202502",
          "website": "https://www.tierra-astur.com/",
          "_amenity_query": "restaurant"
        }
      },
      {
        "type": "node",
        "id": 2353300272,
        "lat": 43.3640404,
        "lon": -5.8443688,
        "tags": {
          "addr:city": "Oviedo / Uviéu",
          "addr:housenumber": "5",
          "addr:street": "Gascona",
          "amenity": "restaurant",
          "check_date": "2023-05-04",
          "indoor_seating": "yes",
          "name": "Sidrería El Ferroviario",
          "outdoor_seating": "yes",
          "phone": "+34 985225215",
          "_amenity_query": "restaurant"
        }
      },
      {
        "type": "node",
        "id": 2353301328,
        "lat": 43.3640796,
        "lon": -5.8444188,
        "tags": {
          "addr:city": "Oviedo / Uviéu",
          "addr:housenumber": "7",
          "addr:postcode": "33001",
          "addr:street": "Calle Gascona",
          "amenity": "restaurant",
          "check_date": "2023-05-04",
          "indoor_seating": "yes",
          "name": "A Feira Pulperías",
          "outdoor_seating": "yes",
          "_amenity_query": "restaurant"
        }
      },
      {
        "type": "node",
        "id": 2353302065,
        "lat": 43.3644432,
        "lon": -5.843774,
        "tags": {
          "amenity": "restaurant",
          "name": "Sidrería la Tata",
          "_amenity_query": "restaurant"
        }
      },
      {
        "type": "node",
        "id": 2353304489,
        "lat": 43.3643071,
        "lon": -5.8416023,
        "tags": {
          "addr:city": "Oviedo / Uviéu",
          "addr:street": "Calle Martínez Vigil",
          "amenity": "restaurant",
          "cuisine": "international;tapas;tea",
          "diet:vegan": "yes",
          "internet_access": "wlan",
          "name": "Manglar",
          "outdoor_seating": "yes",
          "phone": "+34 984 06 26 99",
          "_amenity_query": "restaurant"
        }
      },
      {
        "type": "node",
        "id": 2353350624,
        "lat": 43.4488708,
        "lon": -6.0766173,
        "tags": {
          "amenity": "restaurant",
          "name": "El Llar de Viri",
          "_amenity_query": "restaurant"
        }
      },
      {
        "type": "node",
        "id": 2353446475,
        "lat": 43.3812015,
        "lon": -5.7831681,
        "tags": {
          "amenity": "restaurant",
          "name": "El Corzo",
          "_amenity_query": "restaurant"
        }
      },
      {
        "type": "node",
        "id": 2361453869,
        "lat": 43.3639763,
        "lon": -5.8477442,
        "tags": {
          "addr:city": "Oviedo",
          "amenity": "restaurant",
          "cuisine": "regional",
          "name": "A Carballeira",
          "outdoor_seating": "yes",
          "_amenity_query": "restaurant"
        }
      },
      {
        "type": "node",
        "id": 2386758498,
        "lat": 43.2354717,
        "lon": -4.8201832,
        "tags": {
          "addr:city": "Bulnes",
          "amenity": "restaurant",
          "bar": "yes",
          "cuisine": "regional",
          "name": "Casa Guillermina",
          "outdoor_seating": "yes",
          "phone": "+34 985 84 59 39",
          "_amenity_query": "restaurant"
        }
      },
      {
        "type": "node",
        "id": 2393970215,
        "lat": 43.3607051,
        "lon": -5.8445793,
        "tags": {
          "addr:city": "Oviedo",
          "addr:housename": "La Genuina",
          "addr:housenumber": "28",
          "addr:postcode": "33003",
          "addr:street": "Calle Cimadevilla",
          "air_conditioning": "yes",
          "amenity": "restaurant",
          "cuisine": "arrocería",
          "diet:halal": "no",
          "diet:kosher": "no",
          "diet:vegetarian": "no",
          "indoor_seating": "yes",
          "name": "La Genuina",
          "outdoor_seating": "no",
          "payment:credit_cards": "yes",
          "payment:debit_cards": "yes",
          "phone": "+34 985213606",
          "smoking": "no",
          "wheelchair": "no",
          "_amenity_query": "restaurant"
        }
      },
      {
        "type": "node",
        "id": 2394171148,
        "lat": 43.5092303,
        "lon": -5.27164,
        "tags": {
          "amenity": "restaurant",
          "name": "El Descanso",
          "phone": "+34 985 85 04 62",
          "website": "https://m.facebook.com/@ElDescansoLastres/?wtsid=rdr_0B8FMtHkzh13BRlxs&hr=1",
          "_amenity_query": "restaurant"
        }
      },
      {
        "type": "node",
        "id": 2394200240,
        "lat": 43.5407858,
        "lon": -5.5748643,
        "tags": {
          "amenity": "restaurant",
          "name": "Casa Koty",
          "_amenity_query": "restaurant"
        }
      },
      {
        "type": "node",
        "id": 2418391610,
        "lat": 43.5498287,
        "lon": -6.0954994,
        "tags": {
          "amenity": "restaurant",
          "name": "El Bosque Animado",
          "_amenity_query": "restaurant"
        }
      },
      {
        "type": "node",
        "id": 2420795951,
        "lat": 43.6161714,
        "lon": -5.7911209,
        "tags": {
          "amenity": "restaurant",
          "cuisine": "pizza",
          "name": "El Ombú",
          "_amenity_query": "restaurant"
        }
      },
      {
        "type": "node",
        "id": 2420796112,
        "lat": 43.615887,
        "lon": -5.7893432,
        "tags": {
          "addr:city": "Luanco / Lluanco",
          "amenity": "restaurant",
          "indoor_seating": "yes",
          "name": "El Muelle",
          "outdoor_seating": "yes",
          "_amenity_query": "restaurant"
        }
      },
      {
        "type": "node",
        "id": 2421344348,
        "lat": 43.3523187,
        "lon": -5.1292028,
        "tags": {
          "addr:city": "Cangas de Onís / Cangues d'Onís",
          "amenity": "restaurant",
          "cuisine": "regional",
          "email": "info@villamaria.com",
          "fax": "+34 985849377",
          "name": "Finca Villa María",
          "phone": "+34 985848030",
          "website": "http://www.fincavillamaria.es/",
          "_amenity_query": "restaurant"
        }
      },
      {
        "type": "node",
        "id": 2428417845,
        "lat": 43.6213279,
        "lon": -5.8227539,
        "tags": {
          "amenity": "restaurant",
          "name": "Casa Cefero",
          "_amenity_query": "restaurant"
        }
      },
      {
        "type": "node",
        "id": 2429077165,
        "lat": 43.554009,
        "lon": -6.1220348,
        "tags": {
          "amenity": "restaurant",
          "name": "Hotel Restaurante Azpiazu",
          "_amenity_query": "restaurant"
        }
      },
      {
        "type": "node",
        "id": 2429093930,
        "lat": 43.5629689,
        "lon": -6.1453362,
        "tags": {
          "addr:city": "Cudillero / Cuideiru",
          "addr:housenumber": "7",
          "addr:postcode": "33150",
          "addr:street": "Plaza de la Marina",
          "amenity": "restaurant",
          "check_date": "2025-11-09",
          "contact:facebook": "https://www.facebook.com/Taperia-BAR-CASA-JULIO-cudillero-836631709720732/",
          "cuisine": "seafood;regional",
          "name": "Casa Julio",
          "phone": "+34617438254",
          "_amenity_query": "restaurant"
        }
      },
      {
        "type": "node",
        "id": 2429275735,
        "lat": 43.1635888,
        "lon": -5.8282528,
        "tags": {
          "amenity": "restaurant",
          "name": "La Fragata",
          "_amenity_query": "restaurant"
        }
      },
      {
        "type": "node",
        "id": 2429294469,
        "lat": 43.6156419,
        "lon": -5.7902858,
        "tags": {
          "addr:city": "Luanco",
          "addr:housenumber": "10",
          "addr:postcode": "33440",
          "addr:street": "Paseo del Muelle",
          "amenity": "restaurant",
          "name": "El Tormentín",
          "phone": "+34 984491067",
          "_amenity_query": "restaurant"
        }
      },
      {
        "type": "node",
        "id": 2430543260,
        "lat": 43.5390334,
        "lon": -5.6491177,
        "tags": {
          "addr:city": "Gijón/Xixón",
          "addr:street": "Calle Aguado",
          "amenity": "restaurant",
          "cuisine": "mexican",
          "name": "Fonda & Tequila",
          "_amenity_query": "restaurant"
        }
      },
      {
        "type": "node",
        "id": 2435515350,
        "lat": 43.6149747,
        "lon": -5.7920828,
        "tags": {
          "addr:city": "Lluanco/Luanco",
          "amenity": "restaurant",
          "name": "Náutico",
          "_amenity_query": "restaurant"
        }
      },
      {
        "type": "node",
        "id": 2437385182,
        "lat": 43.616404,
        "lon": -5.7893954,
        "tags": {
          "addr:city": "Lluanco/Luanco",
          "amenity": "restaurant",
          "cuisine": "burger",
          "indoor_seating": "yes",
          "name": "Hambuguesería Monty",
          "outdoor_seating": "yes",
          "_amenity_query": "restaurant"
        }
      },
      {
        "type": "node",
        "id": 2444701597,
        "lat": 43.6148221,
        "lon": -5.7921025,
        "tags": {
          "addr:city": "Lluanco/Luanco",
          "amenity": "restaurant",
          "name": "La Ribera",
          "_amenity_query": "restaurant"
        }
      },
      {
        "type": "node",
        "id": 2452645238,
        "lat": 43.4292094,
        "lon": -6.8180116,
        "tags": {
          "addr:city": "Boal/Bual",
          "addr:postcode": "33720",
          "addr:street": "Avenida de Buenos Aires",
          "amenity": "restaurant",
          "cuisine": "regional",
          "name": "Hotel Restaurante Prado",
          "nohousenumber": "yes",
          "phone": "+34 985 62 04 73",
          "website": "https://www.hotelrestauranteprado.es/",
          "_amenity_query": "restaurant"
        }
      },
      {
        "type": "node",
        "id": 2452693373,
        "lat": 43.4226654,
        "lon": -6.8159263,
        "tags": {
          "addr:city": "Boal/Bual",
          "addr:postcode": "33720",
          "addr:street": "La Granja",
          "amenity": "restaurant",
          "cuisine": "regional",
          "name": "Parrilla El Zángano",
          "phone": "+34 985 620 142",
          "website": "https://hotelparrillaelzangano.com/inicio.html",
          "_amenity_query": "restaurant"
        }
      },
      {
        "type": "node",
        "id": 2467446072,
        "lat": 43.472928,
        "lon": -5.0986146,
        "tags": {
          "addr:city": "Tereñes - Ribadesella",
          "addr:housename": "Tereñes, 67",
          "addr:housenumber": "67",
          "addr:postcode": "33560",
          "amenity": "restaurant",
          "name": "La Portiella",
          "outdoor_seating": "yes",
          "phone": "+34 985 858363",
          "website": "https://chigrelaportiella.com",
          "_amenity_query": "restaurant"
        }
      },
      {
        "type": "node",
        "id": 2481331934,
        "lat": 43.5339887,
        "lon": -5.6661112,
        "tags": {
          "addr:city": "Gijón/Xixón",
          "addr:housenumber": "6",
          "addr:street": "Calle Bobes",
          "amenity": "restaurant",
          "cuisine": "regional",
          "name": "Sidrería Casa Tomás",
          "_amenity_query": "restaurant"
        }
      },
      {
        "type": "node",
        "id": 2481605969,
        "lat": 43.5419926,
        "lon": -5.6661814,
        "tags": {
          "addr:city": "Gijón/Xixón",
          "addr:street": "Calle Cervantes",
          "amenity": "restaurant",
          "diet:vegetarian": "yes",
          "name": "La Vaina",
          "_amenity_query": "restaurant"
        }
      },
      {
        "type": "node",
        "id": 2485125748,
        "lat": 43.2999626,
        "lon": -5.3628141,
        "tags": {
          "amenity": "restaurant",
          "name": "Mesón Vízcares",
          "phone": "+34 985923530",
          "_amenity_query": "restaurant"
        }
      },
      {
        "type": "node",
        "id": 2496709264,
        "lat": 43.5474736,
        "lon": -5.6106926,
        "tags": {
          "addr:street": "Carretera de La Providencia",
          "amenity": "restaurant",
          "cuisine": "seafood;regional",
          "name": "La Posada Blanca",
          "_amenity_query": "restaurant"
        }
      },
      {
        "type": "node",
        "id": 2535523667,
        "lat": 43.604168,
        "lon": -5.8769705,
        "tags": {
          "addr:city": "Manzaneda - Gozón",
          "addr:milestone": "Km. 11",
          "addr:postcode": "33449",
          "addr:street": "Carretera GO-11",
          "amenity": "restaurant",
          "cuisine": "regional",
          "email": "casabelarmino1930@gmail.com",
          "name": "Casa Belarmino",
          "outdoor_seating": "yes",
          "phone": "+34 985 88 08 07",
          "start_date": "1930",
          "website": "https://www.casabelarmino.es/",
          "_amenity_query": "restaurant"
        }
      },
      {
        "type": "node",
        "id": 2550609871,
        "lat": 43.5284304,
        "lon": -5.6411843,
        "tags": {
          "addr:city": "Gijón/Xixón",
          "air_conditioning": "yes",
          "amenity": "restaurant",
          "check_date": "2025-03-06",
          "indoor_seating": "yes",
          "name": "El Medio Lleno",
          "outdoor_seating": "yes",
          "_amenity_query": "restaurant"
        }
      },
      {
        "type": "node",
        "id": 2563067083,
        "lat": 43.513925,
        "lon": -5.2685215,
        "tags": {
          "addr:city": "Lastres/Llastres",
          "amenity": "restaurant",
          "cuisine": "asturian",
          "name": "La Bitácora",
          "_amenity_query": "restaurant"
        }
      },
      {
        "type": "node",
        "id": 2564611952,
        "lat": 43.4701439,
        "lon": -6.6693743,
        "tags": {
          "addr:city": "Oneta",
          "addr:housename": "Hotel Rural YEGUADA ALBEITAR",
          "addr:postcode": "33717",
          "amenity": "restaurant",
          "capacity": "30",
          "cuisine": "regional",
          "name": "Yeguada Albeitar",
          "_amenity_query": "restaurant"
        }
      },
      {
        "type": "node",
        "id": 2567894601,
        "lat": 43.3654785,
        "lon": -5.8857889,
        "tags": {
          "addr:housenumber": "6",
          "addr:street": "Proaza",
          "amenity": "restaurant",
          "name": "Restaurante El Pisón",
          "_amenity_query": "restaurant"
        }
      },
      {
        "type": "node",
        "id": 2567896642,
        "lat": 43.3714144,
        "lon": -5.8534969,
        "tags": {
          "addr:city": "Oviedo / Uviéu",
          "addr:housenumber": "10",
          "addr:postcode": "33012",
          "addr:street": "Calle Menéndez Pelayo",
          "amenity": "restaurant",
          "name": "Restaurante Monte Naranco",
          "opening_hours": "Mo-Su 07:30-01:00",
          "_amenity_query": "restaurant"
        }
      },
      {
        "type": "node",
        "id": 2568332710,
        "lat": 43.3641721,
        "lon": -5.8564613,
        "tags": {
          "addr:street": "Asturias",
          "amenity": "restaurant",
          "name": "Mesón Casa Pedro",
          "phone": "+34 985 24 39 59",
          "_amenity_query": "restaurant"
        }
      },
      {
        "type": "node",
        "id": 2569095489,
        "lat": 43.4113164,
        "lon": -5.8143579,
        "tags": {
          "addr:housenumber": "59",
          "addr:street": "Conde de Santa Bárbara",
          "amenity": "restaurant",
          "name": "Restaurante La Máquina",
          "_amenity_query": "restaurant"
        }
      },
      {
        "type": "node",
        "id": 2585554423,
        "lat": 43.3131709,
        "lon": -5.6914764,
        "tags": {
          "addr:city": "Langreo / Llangréu",
          "addr:housenumber": "26",
          "addr:postcode": "33930",
          "addr:street": "Calle Daniel Álvarez González",
          "amenity": "restaurant",
          "cuisine": "italian",
          "name": "Mani Pulite",
          "opening_hours": "closed",
          "_amenity_query": "restaurant"
        }
      },
      {
        "type": "node",
        "id": 2585554424,
        "lat": 43.312441,
        "lon": -5.6913613,
        "tags": {
          "amenity": "restaurant",
          "name": "El Fogón",
          "opening_hours": "closed",
          "_amenity_query": "restaurant"
        }
      },
      {
        "type": "node",
        "id": 2585554658,
        "lat": 43.3126989,
        "lon": -5.6909474,
        "tags": {
          "amenity": "restaurant",
          "name": "Restaurante CerVecería",
          "opening_hours": "closed",
          "_amenity_query": "restaurant"
        }
      },
      {
        "type": "node",
        "id": 2585554659,
        "lat": 43.3125225,
        "lon": -5.691766,
        "tags": {
          "amenity": "restaurant",
          "cuisine": "regional",
          "name": "Sidrería Cantábrìco",
          "_amenity_query": "restaurant"
        }
      },
      {
        "type": "node",
        "id": 2590578763,
        "lat": 43.3119491,
        "lon": -5.6906834,
        "tags": {
          "addr:housenumber": "30",
          "addr:street": "Calle Baldomero Alonso",
          "amenity": "restaurant",
          "cuisine": "regional",
          "name": "La Pomar",
          "phone": "+34 985 694 975",
          "smoking": "no",
          "website": "http://www.sidrerialapomar.com",
          "_amenity_query": "restaurant"
        }
      },
      {
        "type": "node",
        "id": 2590679475,
        "lat": 43.3119272,
        "lon": -5.6900137,
        "tags": {
          "amenity": "restaurant",
          "name": "Nagasaki",
          "opening_hours": "closed",
          "_amenity_query": "restaurant"
        }
      },
      {
        "type": "node",
        "id": 2591328378,
        "lat": 43.3897471,
        "lon": -5.1850402,
        "tags": {
          "addr:city": "Les Arriondes",
          "addr:postcode": "33540",
          "addr:street": "Calle de Nicanor Piñole",
          "amenity": "restaurant",
          "cuisine": "regional",
          "name": "Sidrería el Submarino",
          "note": "Cachopo, Tortos de maiz ,Ensaladas, Postres caseros",
          "opening_hours": "Mo off",
          "_amenity_query": "restaurant"
        }
      },
      {
        "type": "node",
        "id": 2591340331,
        "lat": 43.3905622,
        "lon": -5.1862524,
        "tags": {
          "addr:city": "Les Arriondes",
          "addr:housename": "La Xunca",
          "addr:postcode": "33540",
          "addr:street": "Calle de Milia la Roxa",
          "amenity": "restaurant",
          "cuisine": "regional",
          "name": "Sidrería bar La Xunca",
          "_amenity_query": "restaurant"
        }
      },
      {
        "type": "node",
        "id": 2591341262,
        "lat": 43.3894184,
        "lon": -5.1861598,
        "tags": {
          "addr:city": "Les Arriondes",
          "addr:housenumber": "5",
          "addr:postcode": "33540",
          "addr:street": "Calle de Ramón del Valle",
          "amenity": "restaurant",
          "cuisine": "regional",
          "name": "Sidrería El Rincón del Castañu",
          "note": "Sidrería en Arriondas. Situada en pleno centro de Arriondas. Terraza.",
          "phone": "+34 985 841 674",
          "_amenity_query": "restaurant"
        }
      },
      {
        "type": "node",
        "id": 2638734614,
        "lat": 43.539643,
        "lon": -5.6696171,
        "tags": {
          "addr:city": "Gijón/Xixón",
          "amenity": "restaurant",
          "cuisine": "regional",
          "name": "La Nueva Caleya",
          "_amenity_query": "restaurant"
        }
      },
      {
        "type": "node",
        "id": 2651930413,
        "lat": 43.5427105,
        "lon": -5.6655982,
        "tags": {
          "addr:city": "Gijón/Xixón",
          "addr:housenumber": "18",
          "addr:postcode": "33206",
          "addr:street": "Calle Linares Rivas",
          "amenity": "restaurant",
          "cuisine": "regional",
          "name": "Del Blanco al Tinto",
          "opening_hours": "12:30-16:00,19:30-24:00",
          "phone": "+34 984490342",
          "website": "http://www.delblancoaltinto.es",
          "_amenity_query": "restaurant"
        }
      },
      {
        "type": "node",
        "id": 2670726331,
        "lat": 43.1585389,
        "lon": -5.829049,
        "tags": {
          "amenity": "restaurant",
          "name": "MO",
          "old_name": "La Boca'l Fraile",
          "_amenity_query": "restaurant"
        }
      },
      {
        "type": "node",
        "id": 2671799131,
        "lat": 43.5539056,
        "lon": -5.9273171,
        "tags": {
          "addr:housenumber": "26",
          "addr:street": "Plaza del Carbayedo",
          "amenity": "restaurant",
          "check_date": "2024-09-17",
          "name": "Casa Carreño",
          "outdoor_seating": "yes",
          "wheelchair": "limited",
          "_amenity_query": "restaurant"
        }
      },
      {
        "type": "node",
        "id": 2673897777,
        "lat": 43.5444529,
        "lon": -5.6630562,
        "tags": {
          "addr:city": "Gijón/Xixón",
          "addr:housenumber": "5",
          "addr:street": "Calle Melquiades Álvarez",
          "amenity": "restaurant",
          "cuisine": "regional",
          "name": "El Rinconín del Texu",
          "_amenity_query": "restaurant"
        }
      },
      {
        "type": "node",
        "id": 2675878448,
        "lat": 43.3639639,
        "lon": -5.8442501,
        "tags": {
          "addr:housenumber": "3",
          "addr:street": "Gascona",
          "amenity": "restaurant",
          "cuisine": "regional",
          "name": "Las Güelas Parrilla",
          "opening_hours": "Mo-Su 12:00-00:00",
          "phone": "+34 686 57 19 23",
          "website": "https://lasguelas.com",
          "_amenity_query": "restaurant"
        }
      },
      {
        "type": "node",
        "id": 2684511293,
        "lat": 43.5904036,
        "lon": -5.7676045,
        "tags": {
          "addr:city": "Candás",
          "addr:housenumber": "23",
          "addr:postcode": "33430",
          "addr:street": "Cai Bernardo Alfageme",
          "amenity": "restaurant",
          "cuisine": "tapas",
          "name": "Sidrería L'Espumeru",
          "_amenity_query": "restaurant"
        }
      },
      {
        "type": "node",
        "id": 2685452533,
        "lat": 43.3593692,
        "lon": -5.8431682,
        "tags": {
          "addr:city": "Uviéu - Oviedo",
          "addr:housenumber": "13",
          "addr:street": "Marqués de Gaztañaga",
          "amenity": "restaurant",
          "contact:instagram": "pinchito_bar",
          "name": "Pinchito",
          "wheelchair": "no",
          "_amenity_query": "restaurant"
        }
      },
      {
        "type": "node",
        "id": 2685612257,
        "lat": 43.366226,
        "lon": -5.8520305,
        "tags": {
          "addr:city": "Oviedo / Uviéu",
          "addr:housenumber": "3",
          "addr:street": "Manuel Pedregal",
          "amenity": "restaurant",
          "indoor_seating": "yes",
          "name": "Pizzería La Competencia",
          "outdoor_seating": "yes",
          "_amenity_query": "restaurant"
        }
      },
      {
        "type": "node",
        "id": 2686909109,
        "lat": 43.2585082,
        "lon": -6.4674732,
        "tags": {
          "amenity": "restaurant",
          "cuisine": "regional",
          "name": "Bar Restaurante El Cantábrico",
          "_amenity_query": "restaurant"
        }
      },
      {
        "type": "node",
        "id": 2694661243,
        "lat": 43.3664073,
        "lon": -5.8527433,
        "tags": {
          "addr:city": "Oviedo",
          "addr:housenumber": "15",
          "addr:postcode": "33001",
          "addr:street": "Calle Manuel Pedregal",
          "amenity": "restaurant",
          "cuisine": "spanish;asturian",
          "indoor_seating": "yes",
          "name": "La Comtienda",
          "outdoor_seating": "yes",
          "phone": "+34 984 493 018",
          "website": "https://lacomtiendaoviedo.es/",
          "_amenity_query": "restaurant"
        }
      },
      {
        "type": "node",
        "id": 2694661422,
        "lat": 43.3664538,
        "lon": -5.8522944,
        "tags": {
          "addr:city": "Oviedo / Uviéu",
          "addr:street": "Calle Manuel Pedregal",
          "amenity": "restaurant",
          "cuisine": "regional;spanish;coffee_shop;tapas",
          "indoor_seating": "yes",
          "name": "La Lola",
          "opening_hours": "Mo-Th 11:00-01:30; Fr 11:00-02:30; Sa 12:00-02:30; Su 12:00-01:30",
          "outdoor_seating": "yes",
          "phone": "+34 984 28 45 49",
          "website": "https://www.lalolaoviedo.com/",
          "_amenity_query": "restaurant"
        }
      },
      {
        "type": "node",
        "id": 2696707739,
        "lat": 43.1527304,
        "lon": -5.8265019,
        "tags": {
          "amenity": "restaurant",
          "name": "La Sierra",
          "_amenity_query": "restaurant"
        }
      },
      {
        "type": "node",
        "id": 2697112592,
        "lat": 43.1604348,
        "lon": -5.8278456,
        "tags": {
          "addr:city": "La Pola",
          "addr:housenumber": "2",
          "addr:postcode": "33630",
          "addr:street": "La Rivera",
          "amenity": "restaurant",
          "name": "Bar Sotechu",
          "phone": "+34 985491532",
          "website": "http://www.sotechu-pola-de-lena.com/",
          "_amenity_query": "restaurant"
        }
      },
      {
        "type": "node",
        "id": 2704013727,
        "lat": 43.2526718,
        "lon": -5.7717882,
        "tags": {
          "amenity": "restaurant",
          "name": "Sidrería Valles Mineros",
          "_amenity_query": "restaurant"
        }
      },
      {
        "type": "node",
        "id": 2704013736,
        "lat": 43.2527273,
        "lon": -5.7717814,
        "tags": {
          "addr:city": "Mieres",
          "addr:housenumber": "7",
          "addr:postcode": "33600",
          "addr:street": "Plaza de San Juan",
          "amenity": "restaurant",
          "cuisine": "regional",
          "name": "Casa Flora",
          "phone": "+34 984 289 279",
          "_amenity_query": "restaurant"
        }
      },
      {
        "type": "node",
        "id": 2707375180,
        "lat": 43.2715846,
        "lon": -6.6105953,
        "tags": {
          "addr:city": "Pola de Allande / La Puela",
          "addr:housenumber": "3",
          "addr:postcode": "33880",
          "addr:street": "Donato Fernández",
          "amenity": "restaurant",
          "cuisine": "local;regional;spanish",
          "name": "La Nueva Allandesa",
          "opening_hours": "Mo-Su 12:30-16:00",
          "phone": "+34985807027",
          "website": "http://www.lanuevaallandesa.com",
          "_amenity_query": "restaurant"
        }
      },
      {
        "type": "node",
        "id": 2707548398,
        "lat": 43.3649614,
        "lon": -5.8548978,
        "tags": {
          "addr:city": "Oviedo / Uviéu",
          "addr:housenumber": "18",
          "addr:postcode": "33004",
          "addr:street": "Independencia",
          "amenity": "restaurant",
          "name": "Independencia Coffee & Food",
          "opening_hours": "Mo-Fr 07:15-21:00; Sa 08:30-14:00",
          "phone": "+34 984 28 45 79",
          "_amenity_query": "restaurant"
        }
      },
      {
        "type": "node",
        "id": 2710603626,
        "lat": 43.5416437,
        "lon": -5.9824705,
        "tags": {
          "amenity": "restaurant",
          "cuisine": "regional",
          "name": "Casa Nemesia",
          "_amenity_query": "restaurant"
        }
      },
      {
        "type": "node",
        "id": 2714884102,
        "lat": 43.54387,
        "lon": -5.6627909,
        "tags": {
          "addr:housenumber": "6",
          "addr:street": "Calle San Antonio",
          "amenity": "restaurant",
          "entrance": "yes",
          "name": "Burasari asiático",
          "_amenity_query": "restaurant"
        }
      },
      {
        "type": "node",
        "id": 2714884134,
        "lat": 43.5441418,
        "lon": -5.662722,
        "tags": {
          "amenity": "restaurant",
          "cuisine": "italian",
          "entrance": "yes",
          "name": "Padrino restaurante italiano",
          "_amenity_query": "restaurant"
        }
      },
      {
        "type": "node",
        "id": 2714916782,
        "lat": 43.5552741,
        "lon": -5.9226823,
        "tags": {
          "addr:housenumber": "4",
          "addr:street": "Calle San Francisco",
          "amenity": "restaurant",
          "check_date": "2024-07-27",
          "name": "Tierra Astur",
          "outdoor_seating": "yes",
          "wheelchair": "limited",
          "_amenity_query": "restaurant"
        }
      },
      {
        "type": "node",
        "id": 2715046270,
        "lat": 43.365592,
        "lon": -5.71593,
        "tags": {
          "amenity": "restaurant",
          "capacity": "50",
          "cuisine": "regional",
          "name": "Sidreria Bar de Hevia",
          "_amenity_query": "restaurant"
        }
      },
      {
        "type": "node",
        "id": 2715825926,
        "lat": 43.619077,
        "lon": -5.7884673,
        "tags": {
          "amenity": "restaurant",
          "name": "La Playa",
          "_amenity_query": "restaurant"
        }
      },
      {
        "type": "node",
        "id": 2716300227,
        "lat": 43.6145557,
        "lon": -5.792202,
        "tags": {
          "amenity": "restaurant",
          "name": "Restaurante Marino",
          "_amenity_query": "restaurant"
        }
      },
      {
        "type": "node",
        "id": 2716300229,
        "lat": 43.6155553,
        "lon": -5.7924261,
        "tags": {
          "amenity": "restaurant",
          "name": "La Cueva",
          "_amenity_query": "restaurant"
        }
      },
      {
        "type": "node",
        "id": 2719635262,
        "lat": 43.5377708,
        "lon": -5.66234,
        "tags": {
          "addr:city": "Gijón/Xixón",
          "addr:housenumber": "3",
          "addr:street": "Calle Periodista Adeflor",
          "amenity": "restaurant",
          "name": "V. Crespo",
          "opening_hours": "Tu-Sa 11:00-16:00,20:00-23:00; Su 11:00-16:00",
          "phone": "+34 985347488",
          "website": "http://www.restaurantevcrespo.com",
          "_amenity_query": "restaurant"
        }
      },
      {
        "type": "node",
        "id": 2719668391,
        "lat": 43.5385562,
        "lon": -5.6468218,
        "tags": {
          "addr:city": "Gijón/Xixón",
          "addr:housenumber": "12",
          "addr:street": "Calle Marqués de Urquijo",
          "amenity": "restaurant",
          "cuisine": "regional",
          "name": "Sidrería La Fueya de Tomás",
          "phone": "+34 985362332",
          "_amenity_query": "restaurant"
        }
      },
      {
        "type": "node",
        "id": 2719668392,
        "lat": 43.5464869,
        "lon": -5.6641723,
        "tags": {
          "addr:city": "Gijón/Xixón",
          "addr:housenumber": "7",
          "addr:postcode": "33201",
          "addr:street": "Calle del Rosario",
          "amenity": "restaurant",
          "name": "Crocante",
          "phone": "+34 984846454",
          "_amenity_query": "restaurant"
        }
      },
      {
        "type": "node",
        "id": 2719927503,
        "lat": 43.5423759,
        "lon": -5.6657741,
        "tags": {
          "addr:city": "Gijón/Xixón",
          "addr:postcode": "33206",
          "addr:street": "Calle Felipe Menéndez",
          "amenity": "restaurant",
          "cuisine": "american",
          "name": "Tommy Mel's",
          "_amenity_query": "restaurant"
        }
      },
      {
        "type": "node",
        "id": 2719951778,
        "lat": 43.5431672,
        "lon": -5.6654066,
        "tags": {
          "addr:city": "Gijón/Xixón",
          "addr:housenumber": "7",
          "addr:postcode": "33206",
          "addr:street": "Calle Marqués de San Esteban",
          "amenity": "restaurant",
          "cuisine": "italian",
          "name": "La Mareona",
          "old_name": "La Nonna",
          "phone": "+34 984493151",
          "_amenity_query": "restaurant"
        }
      },
      {
        "type": "node",
        "id": 2721379248,
        "lat": 43.5426515,
        "lon": -5.6661231,
        "tags": {
          "amenity": "restaurant",
          "cuisine": "pizza",
          "name": "Pizzería La Competencia",
          "toilets:wheelchair": "yes",
          "wheelchair": "yes",
          "_amenity_query": "restaurant"
        }
      },
      {
        "type": "node",
        "id": 2721379256,
        "lat": 43.5425781,
        "lon": -5.6653986,
        "tags": {
          "amenity": "restaurant",
          "cuisine": "italian",
          "name": "Toscana",
          "_amenity_query": "restaurant"
        }
      },
      {
        "type": "node",
        "id": 2728832630,
        "lat": 43.1579906,
        "lon": -5.973401,
        "tags": {
          "addr:city": "Bárzana",
          "addr:housenumber": "62",
          "addr:postcode": "33117",
          "addr:street": "Carretera General",
          "amenity": "restaurant",
          "capacity": "53",
          "cuisine": "regional",
          "name": "Casa Jamallo",
          "opening_hours": "Th-Su 12:30-17:00",
          "phone": "+34 985 76 81 33",
          "_amenity_query": "restaurant"
        }
      },
      {
        "type": "node",
        "id": 2728835132,
        "lat": 43.158525,
        "lon": -5.9731943,
        "tags": {
          "addr:city": "Bárzana",
          "amenity": "restaurant",
          "name": "Sidrería Las Ubiñas",
          "_amenity_query": "restaurant"
        }
      },
      {
        "type": "node",
        "id": 2729316208,
        "lat": 43.1482169,
        "lon": -5.9598342,
        "tags": {
          "addr:city": "Santa Marina",
          "addr:postcode": "33117",
          "amenity": "restaurant",
          "cuisine": "regional",
          "name": "Bar-Tienda El Rubio",
          "phone": "+34 985 76 84 81",
          "_amenity_query": "restaurant"
        }
      },
      {
        "type": "node",
        "id": 2731304277,
        "lat": 43.268014,
        "lon": -5.9677054,
        "tags": {
          "addr:city": "Pedroveya",
          "amenity": "restaurant",
          "cuisine": "regional",
          "name": "Casa Generosa",
          "_amenity_query": "restaurant"
        }
      },
      {
        "type": "node",
        "id": 2731792505,
        "lat": 43.3253463,
        "lon": -5.7896141,
        "tags": {
          "addr:city": "Anieves",
          "addr:housenumber": "28 bis",
          "addr:postcode": "33919",
          "addr:street": "Carretera General Tudela de Agüeria",
          "amenity": "restaurant",
          "cuisine": "regional",
          "name": "Bar Camacho",
          "opening_hours": "Mo-Su 09:00-23:00; Tu off",
          "phone": "+34 985 78 90 09",
          "website": "https://www.barcamacho.es/",
          "_amenity_query": "restaurant"
        }
      },
      {
        "type": "node",
        "id": 2746715404,
        "lat": 43.3932814,
        "lon": -5.6608216,
        "tags": {
          "amenity": "restaurant",
          "cuisine": "pizza",
          "name": "Pizzería La Forna",
          "opening_hours": "Tu-Su",
          "_amenity_query": "restaurant"
        }
      },
      {
        "type": "node",
        "id": 2751582153,
        "lat": 43.3785357,
        "lon": -5.8630868,
        "tags": {
          "addr:city": "Oviedo",
          "addr:postcode": "33012",
          "addr:street": "Carretera del Naranco",
          "amenity": "restaurant",
          "contact:phone": "+34 985 11 42 05",
          "cuisine": "regional",
          "name": "Restaurante Parrilla Sidrería El Mirador",
          "nohousenumber": "yes",
          "_amenity_query": "restaurant"
        }
      },
      {
        "type": "node",
        "id": 2751582156,
        "lat": 43.3785572,
        "lon": -5.8637978,
        "tags": {
          "amenity": "restaurant",
          "indoor_seating": "yes",
          "name": "Restaurante Sidrería Vista Alegre",
          "outdoor_seating": "yes",
          "_amenity_query": "restaurant"
        }
      },
      {
        "type": "node",
        "id": 2751587225,
        "lat": 43.3615012,
        "lon": -5.8453843,
        "tags": {
          "addr:city": "Oviedo",
          "addr:housenumber": "9",
          "addr:postcode": "33003",
          "addr:street": "Calle Altamirano",
          "amenity": "restaurant",
          "check_date": "2023-05-10",
          "indoor_seating": "yes",
          "name": "La Leyenda del Gallo",
          "outdoor_seating": "no",
          "phone": "+34 984840684",
          "website": "https://cartahosteleria.es/laleyendadelgallo/",
          "_amenity_query": "restaurant"
        }
      },
      {
        "type": "node",
        "id": 2751600807,
        "lat": 43.3638064,
        "lon": -5.8445487,
        "tags": {
          "amenity": "restaurant",
          "indoor_seating": "yes",
          "name": "El asador de Aranda",
          "noexit": "yes",
          "outdoor_seating": "yes",
          "_amenity_query": "restaurant"
        }
      },
      {
        "type": "node",
        "id": 2752188867,
        "lat": 43.5105166,
        "lon": -5.5870006,
        "tags": {
          "amenity": "restaurant",
          "name": "Restaurante La Olla de Cristina",
          "_amenity_query": "restaurant"
        }
      },
      {
        "type": "node",
        "id": 2752188869,
        "lat": 43.5182753,
        "lon": -5.5885222,
        "tags": {
          "amenity": "restaurant",
          "cuisine": "regional",
          "name": "Sidrería El Mayu del Infanzón",
          "_amenity_query": "restaurant"
        }
      },
      {
        "type": "node",
        "id": 2754048796,
        "lat": 43.3942687,
        "lon": -5.6618317,
        "tags": {
          "amenity": "restaurant",
          "name": "Sidrería Les Campes",
          "_amenity_query": "restaurant"
        }
      },
      {
        "type": "node",
        "id": 2758309244,
        "lat": 43.3935425,
        "lon": -5.7084304,
        "tags": {
          "amenity": "restaurant",
          "name": "ElFiuChiti",
          "_amenity_query": "restaurant"
        }
      },
      {
        "type": "node",
        "id": 2758311158,
        "lat": 43.3944569,
        "lon": -5.7084037,
        "tags": {
          "amenity": "restaurant",
          "name": "Bar La Plaza",
          "_amenity_query": "restaurant"
        }
      },
      {
        "type": "node",
        "id": 2760809718,
        "lat": 43.3614297,
        "lon": -5.8552348,
        "tags": {
          "amenity": "restaurant",
          "cuisine": "mexican",
          "indoor_seating": "yes",
          "name": "La Catrina",
          "outdoor_seating": "yes",
          "_amenity_query": "restaurant"
        }
      },