{
  "metadata": {
    "descargado_en": "2026-04-21T19:07:49.619499",
    "fuente": "https://overpass-api.de/api/interpreter",
    "total_elementos": 2026
  },
  "data": {
    "elements": [
      {
        "type": "node",
        "id": 255174168,
        "lat": 43.5394238,
        "lon": -5.6833283,
        "tags": {
          "addr:city": "Gijón/Xixón",
          "amenity": "bar",
          "name": "Casa Antidio",
          "source": "PNOA;survey",
          "source:date": "2009",
          "wheelchair": "limited",
          "_amenity_query": "bar"
        }
      },
      {
        "type": "node",
        "id": 255174169,
        "lat": 43.5398447,
        "lon": -5.6834488,
        "tags": {
          "amenity": "bar",
          "name": "Cervecería Juar",
          "source": "PNOA;survey",
          "source:date": "2009",
          "wheelchair": "yes",
          "_amenity_query": "bar"
        }
      },
      {
        "type": "node",
        "id": 290225166,
        "lat": 43.546543,
        "lon": -5.8786375,
        "tags": {
          "amenity": "bar",
          "wheelchair": "no",
          "_amenity_query": "bar"
        }
      },
      {
        "type": "node",
        "id": 480729340,
        "lat": 43.4177954,
        "lon": -4.7545573,
        "tags": {
          "amenity": "bar",
          "name": "Triskel",
          "_amenity_query": "bar"
        }
      },
      {
        "type": "node",
        "id": 480729342,
        "lat": 43.4184653,
        "lon": -4.7543125,
        "tags": {
          "amenity": "bar",
          "name": "Dorado",
          "_amenity_query": "bar"
        }
      },
      {
        "type": "node",
        "id": 481013818,
        "lat": 43.4177703,
        "lon": -4.7535159,
        "tags": {
          "air_conditioning": "yes",
          "amenity": "bar",
          "check_date": "2025-03-07",
          "indoor_seating": "yes",
          "name": "Madison",
          "outdoor_seating": "yes",
          "_amenity_query": "bar"
        }
      },
      {
        "type": "node",
        "id": 481013819,
        "lat": 43.4186909,
        "lon": -4.753715,
        "tags": {
          "air_conditioning": "yes",
          "amenity": "bar",
          "check_date": "2025-03-07",
          "indoor_seating": "yes",
          "name": "La Casi Llena",
          "outdoor_seating": "yes",
          "_amenity_query": "bar"
        }
      },
      {
        "type": "node",
        "id": 481013821,
        "lat": 43.4193878,
        "lon": -4.7539452,
        "tags": {
          "addr:city": "Llanes",
          "amenity": "bar",
          "indoor_seating": "yes",
          "name": "Bitacora",
          "outdoor_seating": "yes",
          "_amenity_query": "bar"
        }
      },
      {
        "type": "node",
        "id": 481013822,
        "lat": 43.4194609,
        "lon": -4.7540012,
        "tags": {
          "amenity": "bar",
          "name": "El Muelle",
          "_amenity_query": "bar"
        }
      },
      {
        "type": "node",
        "id": 481013828,
        "lat": 43.4223263,
        "lon": -4.7576291,
        "tags": {
          "amenity": "bar",
          "name": "Rocamar",
          "_amenity_query": "bar"
        }
      },
      {
        "type": "node",
        "id": 481013829,
        "lat": 43.4224241,
        "lon": -4.7579908,
        "tags": {
          "amenity": "bar",
          "name": "El Latino",
          "_amenity_query": "bar"
        }
      },
      {
        "type": "node",
        "id": 481013831,
        "lat": 43.422323,
        "lon": -4.7582466,
        "tags": {
          "amenity": "bar",
          "name": "Crystal",
          "_amenity_query": "bar"
        }
      },
      {
        "type": "node",
        "id": 487434182,
        "lat": 43.4199791,
        "lon": -4.7559177,
        "tags": {
          "amenity": "bar",
          "name": "Cotiellu",
          "_amenity_query": "bar"
        }
      },
      {
        "type": "node",
        "id": 487434186,
        "lat": 43.4200415,
        "lon": -4.7555492,
        "tags": {
          "amenity": "bar",
          "name": "L'Esbardu",
          "_amenity_query": "bar"
        }
      },
      {
        "type": "node",
        "id": 489290756,
        "lat": 43.4196281,
        "lon": -4.7536331,
        "tags": {
          "amenity": "bar",
          "name": "Matute",
          "_amenity_query": "bar"
        }
      },
      {
        "type": "node",
        "id": 489290757,
        "lat": 43.4195922,
        "lon": -4.7537374,
        "tags": {
          "amenity": "bar",
          "name": "Xana",
          "_amenity_query": "bar"
        }
      },
      {
        "type": "node",
        "id": 489290758,
        "lat": 43.4194123,
        "lon": -4.7527237,
        "tags": {
          "amenity": "bar",
          "name": "El Asturcon",
          "_amenity_query": "bar"
        }
      },
      {
        "type": "node",
        "id": 490970915,
        "lat": 43.406213,
        "lon": -4.777582,
        "tags": {
          "amenity": "bar",
          "name": "El Fresnu",
          "_amenity_query": "bar"
        }
      },
      {
        "type": "node",
        "id": 492188499,
        "lat": 43.3932771,
        "lon": -4.9455816,
        "tags": {
          "amenity": "bar",
          "_amenity_query": "bar"
        }
      },
      {
        "type": "node",
        "id": 492188502,
        "lat": 43.3930956,
        "lon": -4.9447387,
        "tags": {
          "amenity": "bar",
          "name": "Mari",
          "_amenity_query": "bar"
        }
      },
      {
        "type": "node",
        "id": 504038436,
        "lat": 43.4277174,
        "lon": -4.8093273,
        "tags": {
          "amenity": "bar",
          "name": "Bar Caracas",
          "_amenity_query": "bar"
        }
      },
      {
        "type": "node",
        "id": 504154544,
        "lat": 43.4240561,
        "lon": -4.783069,
        "tags": {
          "amenity": "bar",
          "name": "El Paso",
          "_amenity_query": "bar"
        }
      },
      {
        "type": "node",
        "id": 921316018,
        "lat": 43.4310547,
        "lon": -4.8083774,
        "tags": {
          "amenity": "bar",
          "name": "Bar Cantábrico",
          "_amenity_query": "bar"
        }
      },
      {
        "type": "node",
        "id": 949020493,
        "lat": 43.5383035,
        "lon": -5.6845584,
        "tags": {
          "amenity": "bar",
          "name": "La bodega de Davíd",
          "smoking": "yes",
          "wheelchair": "yes",
          "_amenity_query": "bar"
        }
      },
      {
        "type": "node",
        "id": 949050890,
        "lat": 43.5364661,
        "lon": -5.6849255,
        "tags": {
          "amenity": "bar",
          "name": "Ares",
          "wheelchair": "yes",
          "_amenity_query": "bar"
        }
      },
      {
        "type": "node",
        "id": 949050892,
        "lat": 43.5385156,
        "lon": -5.6858403,
        "tags": {
          "amenity": "bar",
          "name": "Sidrería Jose",
          "wheelchair": "limited",
          "_amenity_query": "bar"
        }
      },
      {
        "type": "node",
        "id": 949050897,
        "lat": 43.5389021,
        "lon": -5.6855989,
        "tags": {
          "amenity": "bar",
          "name": "El Teyaín",
          "source": "PNOA",
          "source:date": "2009",
          "wheelchair": "no",
          "_amenity_query": "bar"
        }
      },
      {
        "type": "node",
        "id": 950757292,
        "lat": 43.5401194,
        "lon": -5.6882074,
        "tags": {
          "amenity": "bar",
          "name": "Sidrería Pancho",
          "wheelchair": "no",
          "_amenity_query": "bar"
        }
      },
      {
        "type": "node",
        "id": 971053414,
        "lat": 43.5359279,
        "lon": -5.6824889,
        "tags": {
          "amenity": "bar",
          "name": "Bar Sidreria Mari",
          "smoking": "yes",
          "wheelchair": "yes",
          "_amenity_query": "bar"
        }
      },
      {
        "type": "node",
        "id": 978073667,
        "lat": 43.5420442,
        "lon": -5.6678115,
        "tags": {
          "amenity": "bar",
          "name": "Chafariz",
          "wheelchair": "limited",
          "_amenity_query": "bar"
        }
      },
      {
        "type": "node",
        "id": 995060797,
        "lat": 43.3602512,
        "lon": -5.844526,
        "tags": {
          "addr:city": "Oviedo / Uviéu",
          "addr:housename": "Copas Rotas",
          "addr:housenumber": "11",
          "addr:postcode": "33009",
          "addr:street": "Plaza de la Constitución",
          "amenity": "bar",
          "brewery": "yes",
          "name": "Taberna 4 Calles",
          "outdoor_seating": "yes",
          "phone": "+34 615 86 29 28",
          "_amenity_query": "bar"
        }
      },
      {
        "type": "node",
        "id": 995060814,
        "lat": 43.3597693,
        "lon": -5.8398202,
        "tags": {
          "addr:city": "Oviedo",
          "addr:postcode": "33009",
          "addr:street": "Plaza Benito Gallego Casado",
          "amenity": "bar",
          "name": "Cervecería Café Tamargo",
          "_amenity_query": "bar"
        }
      },
      {
        "type": "node",
        "id": 995060816,
        "lat": 43.3602347,
        "lon": -5.8399853,
        "tags": {
          "addr:city": "Oviedo / Uviéu",
          "amenity": "bar",
          "indoor_seating": "yes",
          "name": "La CBB",
          "outdoor_seating": "yes",
          "_amenity_query": "bar"
        }
      },
      {
        "type": "node",
        "id": 1001588428,
        "lat": 43.5420347,
        "lon": -5.6667496,
        "tags": {
          "amenity": "bar",
          "name": "El Baruku",
          "smoking": "yes",
          "_amenity_query": "bar"
        }
      },
      {
        "type": "node",
        "id": 1001588459,
        "lat": 43.5418414,
        "lon": -5.667581,
        "tags": {
          "amenity": "bar",
          "name": "The Transport",
          "_amenity_query": "bar"
        }
      },
      {
        "type": "node",
        "id": 1036378110,
        "lat": 43.393494,
        "lon": -5.6612873,
        "tags": {
          "amenity": "bar",
          "internet_access": "yes",
          "name": "La Loca del Moño",
          "_amenity_query": "bar"
        }
      },
      {
        "type": "node",
        "id": 1052453362,
        "lat": 43.5419106,
        "lon": -5.6666629,
        "tags": {
          "amenity": "bar",
          "name": "Rincon del Artista",
          "_amenity_query": "bar"
        }
      },
      {
        "type": "node",
        "id": 1052453397,
        "lat": 43.5414821,
        "lon": -5.6702718,
        "tags": {
          "amenity": "bar",
          "name": "Alter Ego",
          "_amenity_query": "bar"
        }
      },
      {
        "type": "node",
        "id": 1052453590,
        "lat": 43.5416603,
        "lon": -5.6701978,
        "tags": {
          "amenity": "bar",
          "name": "La Bodeguita del Medio",
          "smoking": "yes",
          "wheelchair": "yes",
          "_amenity_query": "bar"
        }
      },
      {
        "type": "node",
        "id": 1052453666,
        "lat": 43.5417882,
        "lon": -5.666596,
        "tags": {
          "amenity": "bar",
          "name": "El Rincon de Chus",
          "_amenity_query": "bar"
        }
      },
      {
        "type": "node",
        "id": 1222598759,
        "lat": 43.5421753,
        "lon": -5.666804,
        "tags": {
          "amenity": "bar",
          "name": "La Aduana",
          "_amenity_query": "bar"
        }
      },
      {
        "type": "node",
        "id": 1222598859,
        "lat": 43.5417234,
        "lon": -5.6665525,
        "tags": {
          "addr:city": "Gijón/Xixón",
          "amenity": "bar",
          "_amenity_query": "bar"
        }
      },
      {
        "type": "node",
        "id": 1239381993,
        "lat": 43.5450219,
        "lon": -5.6631383,
        "tags": {
          "addr:city": "Gijón/Xixón",
          "amenity": "bar",
          "name": "La Cuenta de la Vieja",
          "_amenity_query": "bar"
        }
      },
      {
        "type": "node",
        "id": 1272041173,
        "lat": 43.4183021,
        "lon": -4.7542146,
        "tags": {
          "amenity": "bar",
          "cuisine": "burger",
          "name": "Zona Zero",
          "_amenity_query": "bar"
        }
      },
      {
        "type": "node",
        "id": 1272041174,
        "lat": 43.4186156,
        "lon": -4.7545208,
        "tags": {
          "amenity": "bar",
          "name": "El Nidu",
          "smoking": "no",
          "_amenity_query": "bar"
        }
      },
      {
        "type": "node",
        "id": 1272058308,
        "lat": 43.4196744,
        "lon": -4.7528077,
        "tags": {
          "amenity": "bar",
          "name": "White & Black",
          "smoking": "no",
          "_amenity_query": "bar"
        }
      },
      {
        "type": "node",
        "id": 1272058317,
        "lat": 43.4190584,
        "lon": -4.7546819,
        "tags": {
          "amenity": "bar",
          "name": "Bambú",
          "smoking": "no",
          "_amenity_query": "bar"
        }
      },
      {
        "type": "node",
        "id": 1272058319,
        "lat": 43.4195711,
        "lon": -4.7508759,
        "tags": {
          "amenity": "bar",
          "name": "Casa Güelu",
          "smoking": "no",
          "_amenity_query": "bar"
        }
      },
      {
        "type": "node",
        "id": 1279680390,
        "lat": 43.5423305,
        "lon": -5.6665909,
        "tags": {
          "amenity": "bar",
          "name": "Buddha",
          "smoking": "no",
          "_amenity_query": "bar"
        }
      },
      {
        "type": "node",
        "id": 1279680627,
        "lat": 43.5418865,
        "lon": -5.6667809,
        "tags": {
          "amenity": "bar",
          "name": "Bohemios",
          "smoking": "no",
          "_amenity_query": "bar"
        }
      },
      {
        "type": "node",
        "id": 1288150854,
        "lat": 43.4239872,
        "lon": -4.759113,
        "tags": {
          "amenity": "bar",
          "name": "El Estudiante",
          "_amenity_query": "bar"
        }
      },
      {
        "type": "node",
        "id": 1297877071,
        "lat": 43.5464808,
        "lon": -5.6627328,
        "tags": {
          "addr:city": "Gijón/Xixón",
          "amenity": "bar",
          "name": "Sidreria El Lavaderu",
          "smoking": "no",
          "_amenity_query": "bar"
        }
      },
      {
        "type": "node",
        "id": 1304675118,
        "lat": 43.4216609,
        "lon": -4.7521339,
        "tags": {
          "amenity": "bar",
          "check_date": "2024-08-18",
          "indoor_seating": "yes",
          "name": "Rubí",
          "outdoor_seating": "yes",
          "smoking": "no",
          "wheelchair": "limited",
          "_amenity_query": "bar"
        }
      },
      {
        "type": "node",
        "id": 1306789974,
        "lat": 43.4205473,
        "lon": -4.7552269,
        "tags": {
          "addr:city": "Llanes",
          "amenity": "bar",
          "name": "Barrica Blanca",
          "_amenity_query": "bar"
        }
      },
      {
        "type": "node",
        "id": 1307532303,
        "lat": 43.419771,
        "lon": -4.7550709,
        "tags": {
          "amenity": "bar",
          "name": "La Llosa",
          "phone": "+34 985 40 3323",
          "smoking": "no",
          "_amenity_query": "bar"
        }
      },
      {
        "type": "node",
        "id": 1307702562,
        "lat": 43.4211739,
        "lon": -4.751193,
        "tags": {
          "amenity": "bar",
          "name": "Terraza El Balandro",
          "_amenity_query": "bar"
        }
      },
      {
        "type": "node",
        "id": 1308919986,
        "lat": 43.4205191,
        "lon": -4.7542835,
        "tags": {
          "amenity": "bar",
          "name": "Caroní",
          "smoking": "no",
          "_amenity_query": "bar"
        }
      },
      {
        "type": "node",
        "id": 1308920001,
        "lat": 43.4201535,
        "lon": -4.7540517,
        "tags": {
          "amenity": "bar",
          "name": "54",
          "smoking": "no",
          "_amenity_query": "bar"
        }
      },
      {
        "type": "node",
        "id": 1309108394,
        "lat": 43.4199953,
        "lon": -4.7551352,
        "tags": {
          "amenity": "bar",
          "indoor_seating": "yes",
          "name": "La plaza",
          "outdoor_seating": "yes",
          "smoking": "no",
          "_amenity_query": "bar"
        }
      },
      {
        "type": "node",
        "id": 1309108396,
        "lat": 43.4200246,
        "lon": -4.7550476,
        "tags": {
          "amenity": "bar",
          "indoor_seating": "yes",
          "name": "La Galerna",
          "outdoor_seating": "yes",
          "smoking": "no",
          "_amenity_query": "bar"
        }
      },
      {
        "type": "node",
        "id": 1310197696,
        "lat": 43.4206306,
        "lon": -4.7543475,
        "tags": {
          "amenity": "bar",
          "name": "Xarcu",
          "smoking": "no",
          "_amenity_query": "bar"
        }
      },
      {
        "type": "node",
        "id": 1311698636,
        "lat": 43.4205703,
        "lon": -4.7544848,
        "tags": {
          "amenity": "bar",
          "name": "Escuderia Villa de Llanes",
          "_amenity_query": "bar"
        }
      },
      {
        "type": "node",
        "id": 1311698658,
        "lat": 43.4210645,
        "lon": -4.7551131,
        "tags": {
          "amenity": "bar",
          "name": "Casino Bar",
          "smoking": "no",
          "_amenity_query": "bar"
        }
      },
      {
        "type": "node",
        "id": 1312746865,
        "lat": 43.4204093,
        "lon": -4.7546638,
        "tags": {
          "amenity": "bar",
          "name": "Bar Madrid",
          "smoking": "no",
          "_amenity_query": "bar"
        }
      },
      {
        "type": "node",
        "id": 1328445459,
        "lat": 43.4193909,
        "lon": -4.7534602,
        "tags": {
          "amenity": "bar",
          "name": "Abezu",
          "smoking": "no",
          "_amenity_query": "bar"
        }
      },
      {
        "type": "node",
        "id": 1364726288,
        "lat": 43.2518266,
        "lon": -5.7748145,
        "tags": {
          "amenity": "bar",
          "name": "Madreselva",
          "voltage": "400",
          "_amenity_query": "bar"
        }
      },
      {
        "type": "node",
        "id": 1420380395,
        "lat": 43.4097524,
        "lon": -7.1417192,
        "tags": {
          "addr:city": "El Llano",
          "amenity": "bar",
          "name": "Bar San Juan",
          "source": "survey",
          "_amenity_query": "bar"
        }
      },
      {
        "type": "node",
        "id": 1423785055,
        "lat": 43.4653966,
        "lon": -7.0509618,
        "tags": {
          "addr:city": "Vegadeo",
          "addr:postcode": "33770",
          "amenity": "bar",
          "name": "Bar Musical Avión",
          "_amenity_query": "bar"
        }
      },
      {
        "type": "node",
        "id": 1423785056,
        "lat": 43.4645315,
        "lon": -7.0480979,
        "tags": {
          "addr:city": "Vegadeo",
          "addr:postcode": "33770",
          "amenity": "bar",
          "name": "Bar Sanpedro",
          "_amenity_query": "bar"
        }
      },
      {
        "type": "node",
        "id": 1424523645,
        "lat": 43.4665553,
        "lon": -7.0497151,
        "tags": {
          "amenity": "bar",
          "name": "Bar Curtia",
          "tourism": "guest_house",
          "_amenity_query": "bar"
        }
      },
      {
        "type": "node",
        "id": 1430553071,
        "lat": 43.5278791,
        "lon": -7.0314564,
        "tags": {
          "addr:city": "Castropol",
          "addr:postcode": "33760",
          "addr:street": "Paseo del Muelle",
          "amenity": "bar",
          "name": "Bar A Casilla",
          "source": "survey",
          "_amenity_query": "bar"
        }
      },
      {
        "type": "node",
        "id": 1436625941,
        "lat": 43.4644094,
        "lon": -7.0495837,
        "tags": {
          "addr:city": "Vegadeo",
          "addr:postcode": "33770",
          "addr:street": "Plaza del Ayuntamiento",
          "amenity": "bar",
          "name": "A Riada",
          "_amenity_query": "bar"
        }
      },
      {
        "type": "node",
        "id": 1568278466,
        "lat": 43.4344666,
        "lon": -4.8137742,
        "tags": {
          "amenity": "bar",
          "name": "Chiringuito de Borizu",
          "_amenity_query": "bar"
        }
      },
      {
        "type": "node",
        "id": 1576530817,
        "lat": 43.1905592,
        "lon": -5.164729,
        "tags": {
          "amenity": "bar",
          "_amenity_query": "bar"
        }
      },
      {
        "type": "node",
        "id": 1576530830,
        "lat": 43.1905982,
        "lon": -5.1656977,
        "tags": {
          "addr:city": "San Juan de Beleño/San Xuan",
          "amenity": "bar",
          "name": "La Fonda de Ponga",
          "_amenity_query": "bar"
        }
      },
      {
        "type": "node",
        "id": 1634279244,
        "lat": 43.5428869,
        "lon": -5.6636442,
        "tags": {
          "amenity": "bar",
          "name": "La vida alegre",
          "opening_hours": "Mo-Fr 09:00-15:00;Mo-Su 19:00-24:00",
          "smoking": "no",
          "_amenity_query": "bar"
        }
      },
      {
        "type": "node",
        "id": 1674063072,
        "lat": 43.532154,
        "lon": -6.8998426,
        "tags": {
          "amenity": "bar",
          "internet_access": "no",
          "name": "Bar Camilo",
          "smoking": "yes",
          "wheelchair": "yes",
          "_amenity_query": "bar"
        }
      },
      {
        "type": "node",
        "id": 1693356663,
        "lat": 43.4320136,
        "lon": -4.8092136,
        "tags": {
          "amenity": "bar",
          "name": "Chiringuito Palombina",
          "_amenity_query": "bar"
        }
      },
      {
        "type": "node",
        "id": 1712167554,
        "lat": 43.5344571,
        "lon": -5.6386241,
        "tags": {
          "amenity": "bar",
          "name": "Casa Aurora",
          "_amenity_query": "bar"
        }
      },
      {
        "type": "node",
        "id": 1794557922,
        "lat": 43.436816,
        "lon": -4.8398566,
        "tags": {
          "amenity": "bar",
          "name": "Tlaxcala",
          "_amenity_query": "bar"
        }
      },
      {
        "type": "node",
        "id": 1799748253,
        "lat": 43.4205478,
        "lon": -4.7541753,
        "tags": {
          "amenity": "bar",
          "name": "El Antoju",
          "_amenity_query": "bar"
        }
      },
      {
        "type": "node",
        "id": 1799748256,
        "lat": 43.4203835,
        "lon": -4.7552699,
        "tags": {
          "amenity": "bar",
          "name": "La Taguara",
          "_amenity_query": "bar"
        }
      },
      {
        "type": "node",
        "id": 1893695987,
        "lat": 43.5423527,
        "lon": -5.6691604,
        "tags": {
          "amenity": "bar",
          "name": "La Buena Vida Fomento",
          "smoking": "no",
          "wheelchair": "yes",
          "_amenity_query": "bar"
        }
      },
      {
        "type": "node",
        "id": 1915785936,
        "lat": 43.5388629,
        "lon": -5.6920001,
        "tags": {
          "amenity": "bar",
          "name": "Bar Avenida",
          "_amenity_query": "bar"
        }
      },
      {
        "type": "node",
        "id": 1927721160,
        "lat": 43.2704304,
        "lon": -5.1289942,
        "tags": {
          "amenity": "bar",
          "name": "Chili",
          "_amenity_query": "bar"
        }
      },
      {
        "type": "node",
        "id": 1973040983,
        "lat": 43.5878285,
        "lon": -5.9389628,
        "tags": {
          "amenity": "bar",
          "indoor_seating": "yes",
          "name": "Club del Mar San Juan de Nieva",
          "outdoor_seating": "yes",
          "toilets:wheelchair": "no",
          "website": "https://castrillon.vivirasturias.com/bares-cafeterias/c/0/i/59101131/bar-club-mar-san-juan",
          "wheelchair": "limited",
          "_amenity_query": "bar"
        }
      },
      {
        "type": "node",
        "id": 1973044069,
        "lat": 43.5768176,
        "lon": -5.9624267,
        "tags": {
          "amenity": "bar",
          "name": "ewan",
          "outdoor_seating": "yes",
          "toilets:wheelchair": "no",
          "wheelchair": "limited",
          "_amenity_query": "bar"
        }
      },
      {
        "type": "node",
        "id": 1975113630,
        "lat": 43.3318385,
        "lon": -5.93346,
        "tags": {
          "addr:city": "Caces",
          "amenity": "bar",
          "name": "Restaurante Casa Eleuterio",
          "_amenity_query": "bar"
        }
      },
      {
        "type": "node",
        "id": 2001686818,
        "lat": 43.3791489,
        "lon": -4.6086182,
        "tags": {
          "amenity": "bar",
          "name": "La Portilla",
          "_amenity_query": "bar"
        }
      },
      {
        "type": "node",
        "id": 2007037614,
        "lat": 43.27325,
        "lon": -5.1423266,
        "tags": {
          "amenity": "bar",
          "name": "Bar La Ruta",
          "_amenity_query": "bar"
        }
      },
      {
        "type": "node",
        "id": 2070330924,
        "lat": 43.2568086,
        "lon": -5.2012259,
        "tags": {
          "addr:city": "Sellaño",
          "amenity": "bar",
          "name": "Bar El Puente",
          "_amenity_query": "bar"
        }
      },
      {
        "type": "node",
        "id": 2078187193,
        "lat": 43.385391,
        "lon": -5.7000662,
        "tags": {
          "amenity": "bar",
          "name": "Bar Cangas",
          "_amenity_query": "bar"
        }
      },
      {
        "type": "node",
        "id": 2078187194,
        "lat": 43.384903,
        "lon": -5.703652,
        "tags": {
          "amenity": "bar",
          "name": "Bar Ebana",
          "_amenity_query": "bar"
        }
      },
      {
        "type": "node",
        "id": 2078187195,
        "lat": 43.3847885,
        "lon": -5.7044823,
        "tags": {
          "amenity": "bar",
          "name": "Bar El Castillo",
          "_amenity_query": "bar"
        }
      },
      {
        "type": "node",
        "id": 2078187196,
        "lat": 43.3852333,
        "lon": -5.7014414,
        "tags": {
          "amenity": "bar",
          "name": "Bar El Cruce",
          "_amenity_query": "bar"
        }
      },
      {
        "type": "node",
        "id": 2078187198,
        "lat": 43.3847387,
        "lon": -5.7034693,
        "tags": {
          "amenity": "bar",
          "name": "Lo de Mari",
          "_amenity_query": "bar"
        }
      },
      {
        "type": "node",
        "id": 2078187210,
        "lat": 43.3847536,
        "lon": -5.7022985,
        "tags": {
          "amenity": "bar",
          "name": "El Mercado de Las Especias",
          "_amenity_query": "bar"
        }
      },
      {
        "type": "node",
        "id": 2078187217,
        "lat": 43.3850724,
        "lon": -5.7023711,
        "tags": {
          "amenity": "bar",
          "name": "La Cantina",
          "_amenity_query": "bar"
        }
      },
      {
        "type": "node",
        "id": 2081750456,
        "lat": 43.338532,
        "lon": -5.5857963,
        "tags": {
          "amenity": "bar",
          "name": "Bar El Llugar",
          "_amenity_query": "bar"
        }
      },
      {
        "type": "node",
        "id": 2123684188,
        "lat": 43.4622666,
        "lon": -5.0584914,
        "tags": {
          "amenity": "bar",
          "name": "Bar Sebas",
          "wheelchair": "no",
          "_amenity_query": "bar"
        }
      },
      {
        "type": "node",
        "id": 2184630765,
        "lat": 43.3487356,
        "lon": -5.363935,
        "tags": {
          "amenity": "bar",
          "name": "Fresh",
          "_amenity_query": "bar"
        }
      },
      {
        "type": "node",
        "id": 2197112482,
        "lat": 43.3316619,
        "lon": -5.9337356,
        "tags": {
          "addr:city": "Caces",
          "amenity": "bar",
          "name": "Restaurante La Senda",
          "_amenity_query": "bar"
        }
      },
      {
        "type": "node",
        "id": 2197125588,
        "lat": 43.3314614,
        "lon": -5.9258634,
        "tags": {
          "amenity": "bar",
          "name": "Bar El Peón",
          "_amenity_query": "bar"
        }
      },
      {
        "type": "node",
        "id": 2225581147,
        "lat": 43.3554339,
        "lon": -5.9180954,
        "tags": {
          "addr:housenumber": "51",
          "addr:postcode": "33191",
          "addr:street": "Carretera Estación",
          "amenity": "bar",
          "name": "Bar La Estación",
          "_amenity_query": "bar"
        }
      },
      {
        "type": "node",
        "id": 2244479852,
        "lat": 43.3590574,
        "lon": -5.9177781,
        "tags": {
          "addr:city": "San Claudio/San Cloyo",
          "addr:housenumber": "5",
          "addr:postcode": "33191",
          "addr:street": "Carretera la Estacion",
          "amenity": "bar",
          "name": "Las Palmeras",
          "_amenity_query": "bar"
        }
      },
      {
        "type": "node",
        "id": 2270431779,
        "lat": 43.3796838,
        "lon": -5.9262267,
        "tags": {
          "amenity": "bar",
          "name": "Bar Restaurante Casa Valdes",
          "_amenity_query": "bar"
        }
      },
      {
        "type": "node",
        "id": 2272863355,
        "lat": 43.3570094,
        "lon": -5.9188252,
        "tags": {
          "amenity": "bar",
          "name": "La Viña",
          "_amenity_query": "bar"
        }
      },
      {
        "type": "node",
        "id": 2272863413,
        "lat": 43.3582576,
        "lon": -5.9182199,
        "tags": {
          "amenity": "bar",
          "name": "Cafe Bar Isis",
          "_amenity_query": "bar"
        }
      },
      {
        "type": "node",
        "id": 2272863452,
        "lat": 43.3598119,
        "lon": -5.9177417,
        "tags": {
          "amenity": "bar",
          "name": "La Tapadera",
          "_amenity_query": "bar"
        }
      },
      {
        "type": "node",
        "id": 2274238216,
        "lat": 43.3596014,
        "lon": -5.9172167,
        "tags": {
          "addr:city": "San Claudio/San Cloyo",
          "amenity": "bar",
          "name": "Sidreria La Canciella",
          "wheelchair": "no",
          "_amenity_query": "bar"
        }
      },
      {
        "type": "node",
        "id": 2274238234,
        "lat": 43.3595703,
        "lon": -5.9173254,
        "tags": {
          "addr:city": "San Claudio/San Cloyo",
          "amenity": "bar",
          "name": "Bar Tahoces",
          "wheelchair": "no",
          "_amenity_query": "bar"
        }
      },
      {
        "type": "node",
        "id": 2295886883,
        "lat": 43.3602886,
        "lon": -5.8440724,
        "tags": {
          "addr:city": "Oviedo",
          "amenity": "bar",
          "name": "Campa",
          "_amenity_query": "bar"
        }
      },
      {
        "type": "node",
        "id": 2297547626,
        "lat": 43.3595563,
        "lon": -5.9181209,
        "tags": {
          "amenity": "bar",
          "name": "El Roque",
          "wheelchair": "no",
          "_amenity_query": "bar"
        }
      },
      {
        "type": "node",
        "id": 2353292674,
        "lat": 43.3674657,
        "lon": -5.8445361,
        "tags": {
          "addr:city": "Oviedo / Uviéu",
          "addr:street": "Calle Joaquín Vaquero Palacios",
          "amenity": "bar",
          "check_date": "2025-04-09",
          "indoor_seating": "yes",
          "name": "Flandes",
          "outdoor_seating": "yes",
          "_amenity_query": "bar"
        }
      },
      {
        "type": "node",
        "id": 2353292675,
        "lat": 43.3676313,
        "lon": -5.8454906,
        "tags": {
          "addr:city": "Oviedo / Uviéu",
          "amenity": "bar",
          "check_date": "2023-05-26",
          "name": "Onde Rober",
          "_amenity_query": "bar"
        }
      },
      {
        "type": "node",
        "id": 2353323707,
        "lat": 43.344484,
        "lon": -5.9723323,
        "tags": {
          "addr:housenumber": "18",
          "addr:postcode": "33119",
          "addr:street": "Calle Aranjuez",
          "amenity": "bar",
          "contact:facebook": "100054523507569",
          "name": "El Duende",
          "opening_hours": "Tu-Su 09:00-00:00",
          "phone": "+34 985 78 46 63",
          "_amenity_query": "bar"
        }
      },
      {
        "type": "node",
        "id": 2369449106,
        "lat": 43.301551,
        "lon": -4.8152439,
        "tags": {
          "addr:city": "Arenas de Cabrales",
          "amenity": "bar",
          "contact:mobile": "+34 610 53 67 36",
          "name": "La Palma",
          "opening_hours": "Mo-Su 17:00-02:30",
          "_amenity_query": "bar"
        }
      },
      {
        "type": "node",
        "id": 2390041393,
        "lat": 43.3332509,
        "lon": -6.8656537,
        "tags": {
          "amenity": "bar",
          "name": "Bar Nuevo",
          "_amenity_query": "bar"
        }
      },
      {
        "type": "node",
        "id": 2393978639,
        "lat": 43.3555485,
        "lon": -5.8436666,
        "tags": {
          "addr:city": "Oviedo",
          "addr:housename": "Km 0",
          "addr:housenumber": "34",
          "addr:postcode": "33009",
          "addr:street": "Calle Arzobispo Guisasola",
          "amenity": "bar",
          "name": "Km 0",
          "phone": "+34 985219549",
          "_amenity_query": "bar"
        }
      },
      {
        "type": "node",
        "id": 2405561565,
        "lat": 43.3720524,
        "lon": -5.8493356,
        "tags": {
          "addr:city": "Oviedo / Uviéu",
          "addr:postcode": "33012",
          "addr:street": "Calle Calderón de la Barca",
          "amenity": "bar",
          "name": "De buena mañana",
          "opening_hours": "Mo-Su,PH 07:00-19:00",
          "_amenity_query": "bar"
        }
      },
      {
        "type": "node",
        "id": 2405563403,
        "lat": 43.3657246,
        "lon": -5.8695474,
        "tags": {
          "addr:street": "Favila",
          "amenity": "bar",
          "name": "El Choque",
          "_amenity_query": "bar"
        }
      },
      {
        "type": "node",
        "id": 2425629976,
        "lat": 43.5355282,
        "lon": -5.637862,
        "tags": {
          "addr:city": "Gijón/Xixón",
          "amenity": "bar",
          "name": "Stadium",
          "_amenity_query": "bar"
        }
      },
      {
        "type": "node",
        "id": 2428429354,
        "lat": 43.5417084,
        "lon": -5.6582024,
        "tags": {
          "addr:city": "Gijón/Xixón",
          "amenity": "bar",
          "name": "El Patio de la Favorita",
          "_amenity_query": "bar"
        }
      },
      {
        "type": "node",
        "id": 2429267140,
        "lat": 43.1582611,
        "lon": -5.8296141,
        "tags": {
          "amenity": "bar",
          "name": "Heladería D'Estraperlo",
          "_amenity_query": "bar"
        }
      },
      {
        "type": "node",
        "id": 2429267538,
        "lat": 43.1588217,
        "lon": -5.8297415,
        "tags": {
          "amenity": "bar",
          "name": "La Palmera",
          "_amenity_query": "bar"
        }
      },
      {
        "type": "node",
        "id": 2429270038,
        "lat": 43.1610376,
        "lon": -5.8293629,
        "tags": {
          "amenity": "bar",
          "name": "Tan Taran Tan",
          "_amenity_query": "bar"
        }
      },
      {
        "type": "node",
        "id": 2429275851,
        "lat": 43.1635575,
        "lon": -5.8279788,
        "tags": {
          "amenity": "bar",
          "name": "Sidrería Asturias",
          "_amenity_query": "bar"
        }
      },
      {
        "type": "node",
        "id": 2441276119,
        "lat": 43.6143191,
        "lon": -5.7921822,
        "tags": {
          "amenity": "bar",
          "name": "8 Villas",
          "_amenity_query": "bar"
        }
      },
      {
        "type": "node",
        "id": 2453485900,
        "lat": 43.3916985,
        "lon": -6.8300332,
        "tags": {
          "addr:city": "Doiras (Bual)",
          "addr:postcode": "33731",
          "addr:street": "Doiras",
          "amenity": "bar",
          "name": "Bar Hortensia",
          "nohousenumber": "yes",
          "phone": "+34 985620055",
          "_amenity_query": "bar"
        }
      },
      {
        "type": "node",
        "id": 2481338686,
        "lat": 43.4513577,
        "lon": -5.213537,
        "tags": {
          "amenity": "bar",
          "name": "Casa Pancho",
          "_amenity_query": "bar"
        }
      },
      {
        "type": "node",
        "id": 2524302101,
        "lat": 43.3496904,
        "lon": -5.128962,
        "tags": {
          "amenity": "bar",
          "check_date": "2024-08-20",
          "name": "Ovetense",
          "_amenity_query": "bar"
        }
      },
      {
        "type": "node",
        "id": 2524302102,
        "lat": 43.3498642,
        "lon": -5.1286297,
        "tags": {
          "amenity": "bar",
          "name": "Pirrus Bar",
          "_amenity_query": "bar"
        }
      },
      {
        "type": "node",
        "id": 2570075024,
        "lat": 43.6240536,
        "lon": -5.863697,
        "tags": {
          "addr:city": "Verdicio",
          "amenity": "bar",
          "name": "Casa Oliva",
          "_amenity_query": "bar"
        }
      },
      {
        "type": "node",
        "id": 2585148093,
        "lat": 43.4853704,
        "lon": -5.2685529,
        "tags": {
          "addr:city": "Colunga",
          "amenity": "bar",
          "name": "Bar La Bodeguina",
          "_amenity_query": "bar"
        }
      },
      {
        "type": "node",
        "id": 2588355676,
        "lat": 43.3101682,
        "lon": -5.691732,
        "tags": {
          "amenity": "bar",
          "name": "La Tasca del Frasco",
          "_amenity_query": "bar"
        }
      },
      {
        "type": "node",
        "id": 2590679606,
        "lat": 43.3120758,
        "lon": -5.6906699,
        "tags": {
          "amenity": "bar",
          "name": "Favíla",
          "_amenity_query": "bar"
        }
      },
      {
        "type": "node",
        "id": 2601223331,
        "lat": 43.3160196,
        "lon": -5.6837424,
        "tags": {
          "addr:city": "Langreo",
          "addr:housenumber": "49",
          "addr:postcode": "33900",
          "addr:street": "Calle Eugenia de La Reguera",
          "amenity": "bar",
          "name": "La Gruta Casa Julio",
          "_amenity_query": "bar"
        }
      },
      {
        "type": "node",
        "id": 2607614413,
        "lat": 43.3109408,
        "lon": -5.6799857,
        "tags": {
          "amenity": "bar",
          "name": "Mahou",
          "_amenity_query": "bar"
        }
      },
      {
        "type": "node",
        "id": 2612912022,
        "lat": 43.2996637,
        "lon": -5.6835196,
        "tags": {
          "addr:city": "Langreo",
          "addr:housenumber": "86",
          "addr:postcode": "33900",
          "addr:street": "Calle José Álvarez Valdés",
          "amenity": "bar",
          "_amenity_query": "bar"
        }
      },
      {
        "type": "node",
        "id": 2668363357,
        "lat": 43.5352095,
        "lon": -5.6680667,
        "tags": {
          "addr:city": "Gijón/Xixón",
          "addr:housenumber": "40",
          "addr:street": "Avenida de la Constitución",
          "amenity": "bar",
          "cuisine": "local",
          "name": "Cambridge",
          "survey:date": "2014-02-12",
          "_amenity_query": "bar"
        }
      },
      {
        "type": "node",
        "id": 2697113154,
        "lat": 43.1601611,
        "lon": -5.8295023,
        "tags": {
          "amenity": "bar",
          "name": "La Ley Seca",
          "_amenity_query": "bar"
        }
      },
      {
        "type": "node",
        "id": 2698225469,
        "lat": 43.614225,
        "lon": -5.7927943,
        "tags": {
          "amenity": "bar",
          "name": "La Zapatería",
          "_amenity_query": "bar"
        }
      },
      {
        "type": "node",
        "id": 2715049256,
        "lat": 43.385239,
        "lon": -5.7040013,
        "tags": {
          "amenity": "bar",
          "name": "Shake Down",
          "_amenity_query": "bar"
        }
      },
      {
        "type": "node",
        "id": 2719484105,
        "lat": 43.5453015,
        "lon": -5.6632667,
        "tags": {
          "amenity": "bar",
          "name": "El Palacio",
          "_amenity_query": "bar"
        }
      },
      {
        "type": "node",
        "id": 2720183091,
        "lat": 43.5432236,
        "lon": -5.6653155,
        "tags": {
          "amenity": "bar",
          "name": "La Jaula de los 3 Grillos",
          "old_name": "La Farándula",
          "_amenity_query": "bar"
        }
      },
      {
        "type": "node",
        "id": 2721379244,
        "lat": 43.5431225,
        "lon": -5.6654737,
        "tags": {
          "amenity": "bar",
          "old_name": "Versus",
          "shop": "vacant",
          "_amenity_query": "bar"
        }
      },
      {
        "type": "node",
        "id": 2721379246,
        "lat": 43.5430622,
        "lon": -5.6655595,
        "tags": {
          "addr:city": "Gijón/Xixón",
          "addr:street": "Calle Marqués de San Esteban",
          "amenity": "bar",
          "name": "Bambara",
          "_amenity_query": "bar"
        }
      },
      {
        "type": "node",
        "id": 2721379250,
        "lat": 43.5423545,
        "lon": -5.6655273,
        "tags": {
          "amenity": "bar",
          "name": "Cava Baja",
          "_amenity_query": "bar"
        }
      },
      {
        "type": "node",
        "id": 2721379259,
        "lat": 43.5426753,
        "lon": -5.6652564,
        "tags": {
          "amenity": "bar",
          "name": "Vinatería El Monje",
          "_amenity_query": "bar"
        }
      },
      {
        "type": "node",
        "id": 2721379261,
        "lat": 43.5427706,
        "lon": -5.6652055,
        "tags": {
          "amenity": "bar",
          "name": "Pecaditos",
          "_amenity_query": "bar"
        }
      },
      {
        "type": "node",
        "id": 2721379262,
        "lat": 43.5426986,
        "lon": -5.6650767,
        "tags": {
          "amenity": "bar",
          "name": "La Plazuela",
          "_amenity_query": "bar"
        }
      },
      {
        "type": "node",
        "id": 2739212493,
        "lat": 43.177321,
        "lon": -6.5509744,
        "tags": {
          "addr:city": "Cangas del Narcea",
          "addr:postcode": "33800",
          "addr:street": "Calle de La Fuente",
          "amenity": "bar",
          "name": "Bar Chicote",
          "_amenity_query": "bar"
        }
      },
      {
        "type": "node",
        "id": 2746715395,
        "lat": 43.3934156,
        "lon": -5.660016,
        "tags": {
          "amenity": "bar",
          "name": "Les Ferrerines",
          "_amenity_query": "bar"
        }
      },
      {
        "type": "node",
        "id": 2746953572,
        "lat": 43.3711903,
        "lon": -5.8352208,
        "tags": {
          "addr:city": "Oviedo / Uviéu",
          "amenity": "bar",
          "name": "El Bodegón de Teatinos",
          "_amenity_query": "bar"
        }
      },
      {
        "type": "node",
        "id": 2746954335,
        "lat": 43.3715415,
        "lon": -5.8358592,
        "tags": {
          "addr:city": "Oviedo",
          "addr:postcode": "33011",
          "addr:street": "Calle Puerto de San Isidro",
          "amenity": "bar",
          "brewery": "yes",
          "name": "La Botica Indiana",
          "_amenity_query": "bar"
        }
      },
      {
        "type": "node",
        "id": 2746956047,
        "lat": 43.3715957,
        "lon": -5.8366872,
        "tags": {
          "addr:city": "Oviedo",
          "addr:postcode": "33011",
          "addr:street": "Calle Bermúdez de Castro",
          "amenity": "bar",
          "name": "Casa Carmina",
          "note": "Sidrería",
          "_amenity_query": "bar"
        }
      },
      {
        "type": "node",
        "id": 2747327126,
        "lat": 43.5134281,
        "lon": -5.2689804,
        "tags": {
          "addr:city": "Lastres/Llastres",
          "addr:street": "Carretera Colunga - Venta del Pobre por Lastres",
          "amenity": "bar",
          "name": "Café Lastres",
          "phone": "+34 985850477",
          "_amenity_query": "bar"
        }
      },
      {
        "type": "node",
        "id": 2751585035,
        "lat": 43.3616581,
        "lon": -5.8426051,
        "tags": {
          "addr:city": "Uviéu - Oviedo",
          "addr:street": "Calle Canóniga",
          "amenity": "bar",
          "indoor_seating": "yes",
          "name": "Zoo",
          "outdoor_seating": "no",
          "_amenity_query": "bar"
        }
      },
      {
        "type": "node",
        "id": 2751600803,
        "lat": 43.3628236,
        "lon": -5.8441325,
        "tags": {
          "addr:city": "Oviedo / Uviéu",
          "amenity": "bar",
          "check_date": "2025-12-10",
          "indoor_seating": "yes",
          "name": "Kibo bar",
          "outdoor_seating": "yes",
          "_amenity_query": "bar"
        }
      },
      {
        "type": "node",
        "id": 2752735240,
        "lat": 43.159969,
        "lon": -5.8300959,
        "tags": {
          "amenity": "bar",
          "name": "Trazos",
          "_amenity_query": "bar"
        }
      },
      {
        "type": "node",
        "id": 2756136074,
        "lat": 43.3938232,
        "lon": -5.6604148,
        "tags": {
          "amenity": "bar",
          "name": "La Ferrería",
          "_amenity_query": "bar"
        }
      },
      {
        "type": "node",
        "id": 2756136082,
        "lat": 43.3937605,
        "lon": -5.660361,
        "tags": {
          "amenity": "bar",
          "name": "xs",
          "_amenity_query": "bar"
        }
      },
      {
        "type": "node",
        "id": 2757008983,
        "lat": 43.3929423,
        "lon": -5.6585448,
        "tags": {
          "amenity": "bar",
          "name": "Némesis",
          "_amenity_query": "bar"
        }
      },
      {
        "type": "node",
        "id": 2760416355,
        "lat": 43.5317415,
        "lon": -5.6755816,
        "tags": {
          "amenity": "bar",
          "indoor_seating": "yes",
          "name": "Cafeteria Bambi",
          "outdoor_seating": "yes",
          "_amenity_query": "bar"
        }
      },
      {
        "type": "node",
        "id": 2760416359,
        "lat": 43.531689,
        "lon": -5.6756571,
        "tags": {
          "addr:city": "Gijón/Xixón",
          "addr:street": "Calle Puerto de Somiedo",
          "amenity": "bar",
          "name": "Cafetería Totem",
          "_amenity_query": "bar"
        }
      },
      {
        "type": "node",
        "id": 2804742249,
        "lat": 43.3946844,
        "lon": -5.662151,
        "tags": {
          "amenity": "bar",
          "name": "Cava Alta",
          "_amenity_query": "bar"
        }
      },
      {
        "type": "node",
        "id": 2804742250,
        "lat": 43.3945684,
        "lon": -5.6615047,
        "tags": {
          "amenity": "bar",
          "name": "Mini",
          "_amenity_query": "bar"
        }
      },
      {
        "type": "node",
        "id": 2809460247,
        "lat": 43.4848371,
        "lon": -5.2721106,
        "tags": {
          "amenity": "bar",
          "name": "Bambalugas",
          "_amenity_query": "bar"
        }
      },
      {
        "type": "node",
        "id": 2855703222,
        "lat": 43.4119996,
        "lon": -6.1578859,
        "tags": {
          "amenity": "bar",
          "name": "Bar Marios",
          "_amenity_query": "bar"
        }
      },
      {
        "type": "node",
        "id": 2855703229,
        "lat": 43.3352655,
        "lon": -6.5571799,
        "tags": {
          "amenity": "bar",
          "name": "El barin",
          "_amenity_query": "bar"
        }
      },
      {
        "type": "node",
        "id": 2855703233,
        "lat": 43.3356822,
        "lon": -6.4147221,
        "tags": {
          "amenity": "bar",
          "name": "La Panera",
          "_amenity_query": "bar"
        }
      },
      {
        "type": "node",
        "id": 2855703234,
        "lat": 43.4108945,
        "lon": -6.1593504,
        "tags": {
          "addr:postcode": "33850",
          "addr:street": "Prudencio Fernández Pello",
          "amenity": "bar",
          "internet_access": "yes",
          "internet_access:fee": "no",
          "name": "La Taberna",
          "_amenity_query": "bar"
        }
      },
      {
        "type": "node",
        "id": 2855703239,
        "lat": 43.4090957,
        "lon": -6.2578665,
        "tags": {
          "amenity": "bar",
          "name": "Abel",
          "_amenity_query": "bar"
        }
      },
      {
        "type": "node",
        "id": 2855703240,
        "lat": 43.3933679,
        "lon": -6.0651696,
        "tags": {
          "amenity": "bar",
          "name": "bar Mapi",
          "_amenity_query": "bar"
        }
      },
      {
        "type": "node",
        "id": 2855703243,
        "lat": 43.3940954,
        "lon": -6.0640072,
        "tags": {
          "addr:city": "Grado/Grau",
          "addr:housenumber": "14",
          "addr:postcode": "33820",
          "addr:street": "Calle Jove y Valdés",
          "amenity": "bar",
          "name": "Bar Gijón",
          "outdoor_seating": "yes",
          "phone": "+34 985750031",
          "_amenity_query": "bar"
        }
      },
      {
        "type": "node",
        "id": 2870893322,
        "lat": 43.2186155,
        "lon": -6.8752796,
        "tags": {
          "amenity": "bar",
          "name": "Bar Francisquin",
          "_amenity_query": "bar"
        }
      },
      {
        "type": "node",
        "id": 2870961277,
        "lat": 43.2121861,
        "lon": -6.9018968,
        "tags": {
          "amenity": "bar",
          "indoor_seating": "yes",
          "name": "Casa Federico",
          "outdoor_seating": "yes",
          "_amenity_query": "bar"
        }
      },
      {
        "type": "node",
        "id": 2886044856,
        "lat": 43.5178205,
        "lon": -5.6808774,
        "tags": {
          "addr:city": "Gijón/Xixón",
          "addr:street": "Avenida de Salvador Allende",
          "amenity": "bar",
          "indoor_seating": "yes",
          "name": "Cafe de Alteis",
          "outdoor_seating": "yes",
          "_amenity_query": "bar"
        }
      },
      {
        "type": "node",
        "id": 2886044859,
        "lat": 43.5181681,
        "lon": -5.6818539,
        "tags": {
          "amenity": "bar",
          "indoor_seating": "yes",
          "name": "El Chiringuito de Roces",
          "outdoor_seating": "yes",
          "_amenity_query": "bar"
        }
      },
      {
        "type": "node",
        "id": 2952017958,
        "lat": 43.2836953,
        "lon": -6.6361745,
        "tags": {
          "amenity": "bar",
          "name": "Bar Casa Viñas",
          "_amenity_query": "bar"
        }
      },
      {
        "type": "node",
        "id": 3006519121,
        "lat": 43.26094,
        "lon": -5.8690523,
        "tags": {
          "amenity": "bar",
          "cuisine": "regional",
          "name": "Bar Sidrería-Estanco Casa Nueva",
          "_amenity_query": "bar"
        }
      },
      {
        "type": "node",
        "id": 3006673212,
        "lat": 43.3007691,
        "lon": -5.8804318,
        "tags": {
          "addr:city": "Argame",
          "addr:housenumber": "parcel C4",
          "addr:postcode": "33163",
          "addr:street": "Parque Empresarial- C/ Gamonal",
          "amenity": "bar",
          "name": "Gastrobar Morena Clara",
          "_amenity_query": "bar"
        }
      },
      {
        "type": "node",
        "id": 3006673213,
        "lat": 43.2822668,
        "lon": -5.8783023,
        "tags": {
          "addr:city": "Santolaya",
          "amenity": "bar",
          "indoor_seating": "yes",
          "name": "Robert´s",
          "outdoor_seating": "yes",
          "_amenity_query": "bar"
        }
      },
      {
        "type": "node",
        "id": 3007165288,
        "lat": 43.2880186,
        "lon": -5.9294845,
        "tags": {
          "amenity": "bar",
          "_amenity_query": "bar"
        }
      },
      {
        "type": "node",
        "id": 3016710156,
        "lat": 43.289209,
        "lon": -5.6684529,
        "tags": {
          "amenity": "bar",
          "name": "Casa Tino",
          "_amenity_query": "bar"
        }
      },
      {
        "type": "node",
        "id": 3020259744,
        "lat": 43.2653611,
        "lon": -6.962214,
        "tags": {
          "amenity": "bar",
          "name": "Bar Casa da Vila",
          "_amenity_query": "bar"
        }
      },
      {
        "type": "node",
        "id": 3021285108,
        "lat": 43.5544349,
        "lon": -6.7200106,
        "tags": {
          "addr:city": "Navia",
          "addr:postcode": "33750",
          "amenity": "bar",
          "name": "Bar Piedra",
          "_amenity_query": "bar"
        }
      },
      {
        "type": "node",
        "id": 3021285109,
        "lat": 43.5546487,
        "lon": -6.7201876,
        "tags": {
          "addr:city": "Navia",
          "addr:postcode": "33750",
          "amenity": "bar",
          "name": "Rompeolas",
          "_amenity_query": "bar"
        }
      },
      {
        "type": "node",
        "id": 3021285110,
        "lat": 43.554053,
        "lon": -6.7197372,
        "tags": {
          "addr:city": "Navia",
          "addr:postcode": "33750",
          "amenity": "bar",
          "name": "El Pasodoble",
          "_amenity_query": "bar"
        }
      },
      {
        "type": "node",
        "id": 3021382685,
        "lat": 43.5420883,
        "lon": -6.7266853,
        "tags": {
          "addr:city": "El Espín - Cuaña",
          "addr:postcode": "33710",
          "addr:street": "Fernando Jardón",
          "amenity": "bar",
          "name": "Ca Falo",
          "_amenity_query": "bar"
        }
      },
      {
        "type": "node",
        "id": 3028190735,
        "lat": 43.561975,
        "lon": -6.1463124,
        "tags": {
          "amenity": "bar",
          "name": "Mamá Noé",
          "_amenity_query": "bar"
        }
      },
      {
        "type": "node",
        "id": 3029483139,
        "lat": 43.5593856,
        "lon": -6.1492858,
        "tags": {
          "amenity": "bar",
          "name": "Las Redes",
          "_amenity_query": "bar"
        }
      },
      {
        "type": "node",
        "id": 3049072819,
        "lat": 43.3677901,
        "lon": -5.8476002,
        "tags": {
          "addr:city": "Oviedo",
          "addr:housenumber": "16",
          "addr:postcode": "33011",
          "addr:street": "Calle Llano Ponte",
          "amenity": "bar",
          "name": "Bar de IZA Motor",
          "_amenity_query": "bar"
        }
      },
      {
        "type": "node",
        "id": 3074242062,
        "lat": 43.3671291,
        "lon": -5.8745888,
        "tags": {
          "amenity": "bar",
          "name": "Vinoteca 43º 22'",
          "outdoor_seating": "yes",
          "_amenity_query": "bar"
        }
      },
      {
        "type": "node",
        "id": 3079207591,
        "lat": 43.368381,
        "lon": -5.866032,
        "tags": {
          "addr:city": "Uviéu/Oviedo",
          "addr:housenumber": "68",
          "addr:postcode": "33012",
          "addr:street": "Calle Vázquez de Mella",
          "amenity": "bar",
          "name": "Sidrería Castil",
          "_amenity_query": "bar"
        }
      },
      {
        "type": "node",
        "id": 3084458040,
        "lat": 43.5314788,
        "lon": -5.8310465,
        "tags": {
          "amenity": "bar",
          "_amenity_query": "bar"
        }
      },
      {
        "type": "node",
        "id": 3129589724,
        "lat": 43.2548173,
        "lon": -5.7784457,
        "tags": {
          "amenity": "bar",
          "name": "El Chigrín",
          "_amenity_query": "bar"
        }
      },
      {
        "type": "node",
        "id": 3136062872,
        "lat": 43.2467516,
        "lon": -5.7727478,
        "tags": {
          "amenity": "bar",
          "check_date": "2026-03-10",
          "name": "El Mausoleo",
          "_amenity_query": "bar"
        }
      },
      {
        "type": "node",
        "id": 3136062977,
        "lat": 43.245046,
        "lon": -5.7734203,
        "tags": {
          "amenity": "bar",
          "name": "El Llagarón",
          "_amenity_query": "bar"
        }
      },
      {
        "type": "node",
        "id": 3151371874,
        "lat": 43.297729,
        "lon": -5.8203494,
        "tags": {
          "amenity": "bar",
          "name": "Sidreria \"Na x Na\"",
          "_amenity_query": "bar"
        }
      },
      {
        "type": "node",
        "id": 3153437182,
        "lat": 43.3364267,
        "lon": -6.5249782,
        "tags": {
          "addr:city": "Campiello",
          "amenity": "bar",
          "name": "Casa Ricardo",
          "_amenity_query": "bar"
        }
      },
      {
        "type": "node",
        "id": 3153437184,
        "lat": 43.3939066,
        "lon": -6.3384089,
        "tags": {
          "amenity": "bar",
          "name": "El Candano",
          "phone": "+34 985837017",
          "_amenity_query": "bar"
        }
      },
      {
        "type": "node",
        "id": 3359885424,
        "lat": 43.3634449,
        "lon": -5.8651542,
        "tags": {
          "addr:city": "Oviedo/Uviéu",
          "amenity": "bar",
          "name": "48 Miñor",
          "_amenity_query": "bar"
        }
      },
      {
        "type": "node",
        "id": 3361981735,
        "lat": 43.555752,
        "lon": -5.9300673,
        "tags": {
          "addr:street": "Calle Juan XXIII",
          "amenity": "bar",
          "check_date": "2023-11-01",
          "name": "Bulevar",
          "toilets:wheelchair": "no",
          "wheelchair": "limited",
          "_amenity_query": "bar"
        }
      },
      {
        "type": "node",
        "id": 3423544295,
        "lat": 43.5303668,
        "lon": -5.6718322,
        "tags": {
          "amenity": "bar",
          "name": "Bar Sidrería Manza",
          "_amenity_query": "bar"
        }
      },
      {
        "type": "node",
        "id": 3423544311,
        "lat": 43.5380819,
        "lon": -5.6598845,
        "tags": {
          "addr:city": "Gijón/Xixón",
          "amenity": "bar",
          "name": "La Buena Birra",
          "_amenity_query": "bar"
        }
      },
      {
        "type": "node",
        "id": 3429502393,
        "lat": 43.5426182,
        "lon": -5.6672037,
        "tags": {
          "amenity": "bar",
          "name": "Sidrería La Llosa",
          "_amenity_query": "bar"
        }
      },
      {
        "type": "node",
        "id": 3433971593,
        "lat": 43.3840973,
        "lon": -5.6998744,
        "tags": {
          "addr:city": "El Berrón",
          "addr:street": "Calle Gerardo Díaz Nuño",
          "amenity": "bar",
          "name": "Café Bar La Cubana",
          "_amenity_query": "bar"
        }
      },
      {
        "type": "node",
        "id": 3437410494,
        "lat": 43.529556,
        "lon": -5.6727743,
        "tags": {
          "amenity": "bar",
          "name": "Bar Pulpería Folgueira",
          "_amenity_query": "bar"
        }
      },
      {
        "type": "node",
        "id": 3440808474,
        "lat": 43.3936514,
        "lon": -5.6579765,
        "tags": {
          "amenity": "bar",
          "name": "Cervecería Yeyos",
          "_amenity_query": "bar"
        }
      },
      {
        "type": "node",
        "id": 3440808491,
        "lat": 43.3929084,
        "lon": -5.6596061,
        "tags": {
          "amenity": "bar",
          "name": "Sidrería El Parque",
          "_amenity_query": "bar"
        }
      },
      {
        "type": "node",
        "id": 3441876895,
        "lat": 43.5392652,
        "lon": -5.6658454,
        "tags": {
          "addr:city": "Gijón/Xixón",
          "addr:housenumber": "7",
          "addr:street": "Calle Palacio Valdés",
          "amenity": "bar",
          "name": "Vinatería L'Humedal",
          "_amenity_query": "bar"
        }
      },
      {
        "type": "node",
        "id": 3445691196,
        "lat": 43.3923229,
        "lon": -5.6613164,
        "tags": {
          "amenity": "bar",
          "name": "Copahue",
          "_amenity_query": "bar"
        }
      },
      {
        "type": "node",
        "id": 3455198475,
        "lat": 43.365033,
        "lon": -5.8861085,
        "tags": {
          "amenity": "bar",
          "name": "Xolot",
          "_amenity_query": "bar"
        }
      },
      {
        "type": "node",
        "id": 3455203421,
        "lat": 43.3652923,
        "lon": -5.8857035,
        "tags": {
          "amenity": "bar",
          "name": "Espumeru",
          "_amenity_query": "bar"
        }
      },
      {
        "type": "node",
        "id": 3501026911,
        "lat": 43.4289612,
        "lon": -6.8178633,
        "tags": {
          "addr:city": "Boal",
          "addr:postcode": "33720",
          "addr:street": "Plaza de la Iglésia",
          "amenity": "bar",
          "contact:facebook": "https://www.facebook.com/LaMadre8a/",
          "name": "Bar La Madreña",
          "phone": "+34985620645",
          "_amenity_query": "bar"
        }
      },
      {
        "type": "node",
        "id": 3501026912,
        "lat": 43.4290402,
        "lon": -6.8177147,
        "tags": {
          "addr:city": "Boal",
          "addr:postcode": "33720",
          "addr:street": "Plaza de la Iglésia",
          "amenity": "bar",
          "indoor_seating": "yes",
          "name": "El Casino",
          "outdoor_seating": "yes",
          "_amenity_query": "bar"
        }
      },
      {
        "type": "node",
        "id": 3501028484,
        "lat": 43.428085,
        "lon": -6.8196853,
        "tags": {
          "addr:city": "Boal",
          "addr:postcode": "33720",
          "addr:street": "Avenida de Asturias",
          "amenity": "bar",
          "name": "Cafe-Bar Gran Vía",
          "_amenity_query": "bar"
        }
      },
      {
        "type": "node",
        "id": 3501029213,
        "lat": 43.428804,
        "lon": -6.8183058,
        "tags": {
          "addr:city": "Boal",
          "addr:postcode": "33720",
          "addr:street": "Avenida de Asturias",
          "amenity": "bar",
          "name": "Cabildros",
          "_amenity_query": "bar"
        }
      },
      {
        "type": "node",
        "id": 3501039900,
        "lat": 43.4278581,
        "lon": -6.8199964,
        "tags": {
          "addr:city": "Boal",
          "addr:postcode": "33720",
          "addr:street": "Avenida de Asturias",
          "amenity": "bar",
          "name": "Labayos",
          "_amenity_query": "bar"
        }
      },
      {
        "type": "node",
        "id": 3501040287,
        "lat": 43.4276956,
        "lon": -6.8204969,
        "tags": {
          "addr:city": "Boal",
          "addr:postcode": "33720",
          "addr:street": "Avenida de Asturias",
          "amenity": "bar",
          "name": "Cafe-Bar Blanco y Negro",
          "_amenity_query": "bar"
        }
      },
      {
        "type": "node",
        "id": 3566139572,
        "lat": 43.3897027,
        "lon": -6.0688183,
        "tags": {
          "amenity": "bar",
          "indoor_seating": "yes",
          "internet_access": "yes",
          "name": "La Merced",
          "outdoor_seating": "yes",
          "_amenity_query": "bar"
        }
      },
      {
        "type": "node",
        "id": 3569458660,
        "lat": 43.5425516,
        "lon": -6.5347874,
        "tags": {
          "addr:housenumber": "5",
          "addr:street": "Calle Aurelio Martínez",
          "amenity": "bar",
          "name": "Café Colón",
          "_amenity_query": "bar"
        }
      },
      {
        "type": "node",
        "id": 3569458661,
        "lat": 43.543888,
        "lon": -6.53619,
        "tags": {
          "amenity": "bar",
          "internet_access": "wlan",
          "name": "El Muro",
          "_amenity_query": "bar"
        }
      },
      {
        "type": "node",
        "id": 3569458662,
        "lat": 43.5433844,
        "lon": -6.5347705,
        "tags": {
          "amenity": "bar",
          "name": "Mesón El Crucero",
          "_amenity_query": "bar"
        }
      },
      {
        "type": "node",
        "id": 3569459950,
        "lat": 43.5431386,
        "lon": -6.5349836,
        "tags": {
          "amenity": "bar",
          "name": "Bar La Luz",
          "_amenity_query": "bar"
        }
      },
      {
        "type": "node",
        "id": 3633164115,
        "lat": 43.3845061,
        "lon": -5.6987291,
        "tags": {
          "amenity": "bar",
          "name": "Hogar del Pensionista de El Berrón",
          "_amenity_query": "bar"
        }
      },
      {
        "type": "node",
        "id": 3711874226,
        "lat": 43.5250081,
        "lon": -5.6784911,
        "tags": {
          "addr:city": "Gijón/Xixón",
          "amenity": "bar",
          "name": "TresPuntoCero",
          "_amenity_query": "bar"
        }
      },
      {
        "type": "node",
        "id": 3894999704,
        "lat": 43.2044436,
        "lon": -5.7915964,
        "tags": {
          "amenity": "bar",
          "check_date": "2024-07-29",
          "name": "Bar Casa Jamin",
          "_amenity_query": "bar"
        }
      },
      {
        "type": "node",
        "id": 3894999706,
        "lat": 43.2043109,
        "lon": -5.7916256,
        "tags": {
          "amenity": "bar",
          "name": "Sidereria Bar Platas",
          "_amenity_query": "bar"
        }
      },
      {
        "type": "node",
        "id": 3921700790,
        "lat": 43.3117598,
        "lon": -5.6907362,
        "tags": {
          "amenity": "bar",
          "name": "Bar Telva",
          "_amenity_query": "bar"
        }
      },
      {
        "type": "node",
        "id": 4053327771,
        "lat": 43.393129,
        "lon": -5.6603762,
        "tags": {
          "amenity": "bar",
          "name": "Tinta Fina",
          "_amenity_query": "bar"
        }
      },
      {
        "type": "node",
        "id": 4200510991,
        "lat": 43.3015081,
        "lon": -5.7091618,
        "tags": {
          "amenity": "bar",
          "name": "El Pato azul",
          "outdoor_seating": "yes",
          "smoking": "outside",
          "_amenity_query": "bar"
        }
      },
      {
        "type": "node",
        "id": 4207932472,
        "lat": 43.3946109,
        "lon": -5.661709,
        "tags": {
          "addr:street": "Plaza Les Campes",
          "amenity": "bar",
          "name": "La Biblioteca",
          "_amenity_query": "bar"
        }
      },
      {
        "type": "node",
        "id": 4207933423,
        "lat": 43.3945943,
        "lon": -5.6616271,
        "tags": {
          "amenity": "bar",
          "name": "La Birra de Brian",
          "_amenity_query": "bar"
        }
      },
      {
        "type": "node",
        "id": 4209732102,
        "lat": 43.3943172,
        "lon": -5.6623727,
        "tags": {
          "amenity": "bar",
          "brewery": "yes",
          "name": "Patio de Butacas",
          "outdoor_seating": "yes",
          "_amenity_query": "bar"
        }
      },
      {
        "type": "node",
        "id": 4213475389,
        "lat": 43.393323,
        "lon": -5.6604938,
        "tags": {
          "amenity": "bar",
          "name": "El Santo",
          "_amenity_query": "bar"
        }
      },
      {
        "type": "node",
        "id": 4218311918,
        "lat": 43.3904465,
        "lon": -5.6594472,
        "tags": {
          "amenity": "bar",
          "name": "Tonier",
          "_amenity_query": "bar"
        }
      },
      {
        "type": "node",
        "id": 4242449880,
        "lat": 43.3930953,
        "lon": -5.6616597,
        "tags": {
          "amenity": "bar",
          "name": "Bar Premier",
          "_amenity_query": "bar"
        }
      },
      {
        "type": "node",
        "id": 4245210890,
        "lat": 43.5321765,
        "lon": -5.6599301,
        "tags": {
          "addr:housenumber": "5",
          "addr:postcode": "33209",
          "addr:street": "Calle Poeta Alfonso Camín",
          "amenity": "bar",
          "name": "Vinatería La Barrica",
          "_amenity_query": "bar"
        }
      },
      {
        "type": "node",
        "id": 4255201517,
        "lat": 43.2881015,
        "lon": -5.6364092,
        "tags": {
          "amenity": "bar",
          "name": "Fervinchu",
          "outdoor_seating": "yes",
          "smoking": "outside",
          "_amenity_query": "bar"
        }
      },
      {
        "type": "node",
        "id": 4255201518,
        "lat": 43.287493,
        "lon": -5.639408,
        "tags": {
          "amenity": "bar",
          "name": "La coctelera de May",
          "outdoor_seating": "yes",
          "smoking": "outside",
          "_amenity_query": "bar"
        }
      },
      {
        "type": "node",
        "id": 4255201520,
        "lat": 43.2872027,
        "lon": -5.6381176,
        "tags": {
          "amenity": "bar",
          "name": "Vinoteca El Urriellu",
          "outdoor_seating": "yes",
          "smoking": "outside",
          "_amenity_query": "bar"
        }
      },
      {
        "type": "node",
        "id": 4317926990,
        "lat": 43.5546281,
        "lon": -5.9241493,
        "tags": {
          "addr:city": "Avilés",
          "addr:housenumber": "7",
          "addr:postcode": "33402",
          "addr:street": "Calle Galiana",
          "amenity": "bar",
          "check_date": "2024-07-27",
          "name": "Meeting Point",
          "outdoor_seating": "yes",
          "_amenity_query": "bar"
        }
      },
      {
        "type": "node",
        "id": 4317930496,
        "lat": 43.5519205,
        "lon": -5.9254358,
        "tags": {
          "amenity": "bar",
          "name": "Pleamar",
          "_amenity_query": "bar"
        }
      },
      {
        "type": "node",
        "id": 4318641209,
        "lat": 43.3231175,
        "lon": -4.5847858,
        "tags": {
          "amenity": "bar",
          "indoor_seating": "yes",
          "name": "El Resbalón",
          "outdoor_seating": "yes",
          "_amenity_query": "bar"
        }
      },
      {
        "type": "node",
        "id": 4351577390,
        "lat": 43.5437176,
        "lon": -5.7048835,
        "tags": {
          "addr:city": "Gijón/Xixón",
          "amenity": "bar",
          "name": "Grape",
          "_amenity_query": "bar"
        }
      },
      {
        "type": "node",
        "id": 4355091013,
        "lat": 43.3116228,
        "lon": -5.6908659,
        "tags": {
          "amenity": "bar",
          "name": "Sidrería Casa Isaac",
          "_amenity_query": "bar"
        }
      },
      {
        "type": "node",
        "id": 4355094697,
        "lat": 43.3088856,
        "lon": -5.6939854,
        "tags": {
          "amenity": "bar",
          "name": "Sidrería El Patio de Peyo",
          "_amenity_query": "bar"
        }
      },
      {
        "type": "node",
        "id": 4355477402,
        "lat": 43.3085614,
        "lon": -5.6914477,
        "tags": {
          "amenity": "bar",
          "name": "Sidrería El Parque",
          "_amenity_query": "bar"
        }
      },
      {
        "type": "node",
        "id": 4357443089,
        "lat": 43.5506562,
        "lon": -5.9156248,
        "tags": {
          "addr:postcode": "33402",
          "addr:street": "Calle Auseva",
          "air_conditioning": "yes",
          "amenity": "bar",
          "check_date": "2025-03-05",
          "cuisine": "coffee_shop",
          "indoor_seating": "yes",
          "internet_access": "wlan",
          "name": "Café Bidul",
          "name:es": "Café Bidul",
          "outdoor_seating": "yes",
          "wheelchair": "yes",
          "_amenity_query": "bar"
        }
      },
      {
        "type": "node",
        "id": 4359283989,
        "lat": 43.5554595,
        "lon": -5.9214723,
        "tags": {
          "addr:street": "Plaza de España",
          "amenity": "bar",
          "check_date": "2024-08-12",
          "cuisine": "hot_dog;burger;coffee_shop;ice_cream;breakfast",
          "name": "100 Montaditos",
          "name:es": "100 Montaditos",
          "outdoor_seating": "yes",
          "wheelchair": "limited",
          "_amenity_query": "bar"
        }
      },
      {
        "type": "node",
        "id": 4434732789,
        "lat": 43.5493209,
        "lon": -5.9185741,
        "tags": {
          "amenity": "bar",
          "name": "Bodega Baco",
          "name:es": "Bodega Baco",
          "_amenity_query": "bar"
        }
      },
      {
        "type": "node",
        "id": 4437953691,
        "lat": 43.5438166,
        "lon": -5.6622216,
        "tags": {
          "addr:city": "Gijón/Xixón",
          "addr:housenumber": "13",
          "addr:street": "Calle San Bernardo",
          "amenity": "bar",
          "name": "Sidreria El Globo",
          "name:es": "Sidreria El Globo",
          "_amenity_query": "bar"
        }
      },
      {
        "type": "node",
        "id": 4442541994,
        "lat": 43.5460454,
        "lon": -5.9065907,
        "tags": {
          "amenity": "bar",
          "name": "Basanta",
          "_amenity_query": "bar"
        }
      },
      {
        "type": "node",
        "id": 4442544158,
        "lat": 43.546118,
        "lon": -5.9076069,
        "tags": {
          "amenity": "bar",
          "name": "El Bodegón",
          "_amenity_query": "bar"
        }
      },
      {
        "type": "node",
        "id": 4505043091,
        "lat": 43.3513737,
        "lon": -5.861487,
        "tags": {
          "amenity": "bar",
          "name": "Mada",
          "name:es": "Mada",
          "_amenity_query": "bar"
        }
      },
      {
        "type": "node",
        "id": 4538119591,
        "lat": 43.3708479,
        "lon": -5.8408695,
        "tags": {
          "addr:postcode": "33011",
          "addr:street": "Calle Turina",
          "amenity": "bar",
          "check_date": "2023-07-15",
          "name": "Bar Drago",
          "_amenity_query": "bar"
        }
      },
      {
        "type": "node",
        "id": 4543278492,
        "lat": 43.3697659,
        "lon": -5.8402947,
        "tags": {
          "addr:housenumber": "19",
          "addr:postcode": "33011",
          "addr:street": "Calle Albéniz",
          "amenity": "bar",
          "cuisine": "spanish",
          "internet_access": "wlan",
          "name": "Bar Sidrería Albéniz",
          "phone": "+34 985290819",
          "_amenity_query": "bar"
        }
      },
      {
        "type": "node",
        "id": 4655946895,
        "lat": 43.5400682,
        "lon": -5.6568761,
        "tags": {
          "addr:housenumber": "14",
          "addr:street": "Calle Marqués de Casa Valdés",
          "amenity": "bar",
          "name": "la cerveceria del millon de ibus",
          "_amenity_query": "bar"
        }
      },
      {
        "type": "node",
        "id": 4656287289,
        "lat": 43.5429323,
        "lon": -5.6647485,
        "tags": {
          "addr:housenumber": "8",
          "addr:street": "Calle Salustio Regueral",
          "amenity": "bar",
          "name": "marfil",
          "_amenity_query": "bar"
        }
      },
      {
        "type": "node",
        "id": 4677033590,
        "lat": 43.5462581,
        "lon": -5.6621836,
        "tags": {
          "addr:housenumber": "5",
          "addr:postcode": "33201",
          "addr:street": "Calle Escultor Sebastián Miranda",
          "amenity": "bar",
          "cuisine": "local",
          "name": "Casa Oscar",
          "name:en": "Oscar's House",
          "opening_hours": "Mo-Su 09:00-0:00",
          "_amenity_query": "bar"
        }
      },
      {
        "type": "node",
        "id": 4690385815,
        "lat": 43.4020215,
        "lon": -5.8079773,
        "tags": {
          "addr:city": "Lugones",
          "addr:housenumber": "20",
          "addr:postcode": "33420",
          "addr:street": "Calle Antonio Machado",
          "amenity": "bar",
          "name": "Cafe Bulevar",
          "_amenity_query": "bar"
        }
      },
      {
        "type": "node",
        "id": 4717220814,
        "lat": 43.3679588,
        "lon": -5.8657614,
        "tags": {
          "amenity": "bar",
          "name": "Sidrería Manolo",
          "_amenity_query": "bar"
        }
      },
      {
        "type": "node",
        "id": 4731324143,
        "lat": 43.3648252,
        "lon": -5.8410325,
        "tags": {
          "addr:city": "Oviedo / Uviéu",
          "addr:street": "Calle Martínez Vigil",
          "amenity": "bar",
          "check_date": "2025-12-10",
          "indoor_seating": "yes",
          "name": "Andén 5",
          "outdoor_seating": "yes",
          "smoking": "no",
          "_amenity_query": "bar"
        }
      },
      {
        "type": "node",
        "id": 4783713259,
        "lat": 43.360362,
        "lon": -5.843506,
        "tags": {
          "amenity": "bar",
          "name": "Chicote",
          "_amenity_query": "bar"
        }
      },
      {
        "type": "node",
        "id": 4793311308,
        "lat": 43.3378448,
        "lon": -5.5658298,
        "tags": {
          "amenity": "bar",
          "indoor_seating": "yes",
          "name": "Bar Vigil",
          "outdoor_seating": "yes",
          "_amenity_query": "bar"
        }
      },
      {
        "type": "node",
        "id": 4793318257,
        "lat": 43.3400257,
        "lon": -5.5614716,
        "tags": {
          "amenity": "bar",
          "name": "Bar La Tranca",
          "_amenity_query": "bar"
        }
      },
      {
        "type": "node",
        "id": 4793321353,
        "lat": 43.3395604,
        "lon": -5.5625144,
        "tags": {
          "amenity": "bar",
          "name": "Bar La Vega",
          "_amenity_query": "bar"
        }
      },
      {
        "type": "node",
        "id": 4796428213,
        "lat": 43.4464851,
        "lon": -6.5398603,
        "tags": {
          "amenity": "bar",
          "name": "Bar Aristébano",
          "_amenity_query": "bar"
        }
      },
      {
        "type": "node",
        "id": 4811918608,
        "lat": 43.5342673,
        "lon": -6.1185741,
        "tags": {
          "amenity": "bar",
          "name": "El Parque",
          "_amenity_query": "bar"
        }
      },
      {
        "type": "node",
        "id": 4869710013,
        "lat": 43.5260845,
        "lon": -5.6495877,
        "tags": {
          "amenity": "bar",
          "name": "Psicotapas",
          "outdoor_seating": "yes",
          "smoking": "no",
          "_amenity_query": "bar"
        }
      },
      {
        "type": "node",
        "id": 4883332816,
        "lat": 43.3299452,
        "lon": -5.0807609,
        "tags": {
          "amenity": "bar",
          "name": "Souvenirs Picos de Europa",
          "_amenity_query": "bar"
        }
      },
      {
        "type": "node",
        "id": 4887259844,
        "lat": 43.271778,
        "lon": -6.6115035,
        "tags": {
          "amenity": "bar",
          "name": "Bar Queipo",
          "_amenity_query": "bar"
        }
      },
      {
        "type": "node",
        "id": 4887259860,
        "lat": 43.2720378,
        "lon": -6.6095187,
        "tags": {
          "addr:city": "Pola de Allande / La Puela",
          "amenity": "bar",
          "_amenity_query": "bar"
        }
      },
      {
        "type": "node",
        "id": 4887259863,
        "lat": 43.2714753,
        "lon": -6.610377,
        "tags": {
          "amenity": "bar",
          "name": "Jaybor",
          "_amenity_query": "bar"
        }
      },
      {
        "type": "node",
        "id": 4890378287,
        "lat": 43.3847925,
        "lon": -5.703273,
        "tags": {
          "amenity": "bar",
          "name": "El Gordo",
          "_amenity_query": "bar"
        }
      },
      {
        "type": "node",
        "id": 4905800240,
        "lat": 43.540076,
        "lon": -5.6567674,
        "tags": {
          "addr:city": "Gijón/Xixón",
          "addr:housenumber": "14",
          "addr:postcode": "33202",
          "addr:street": "Calle Marqués de Casa Valdés",
          "amenity": "bar",
          "name": "Green Zone Bio",
          "_amenity_query": "bar"
        }
      },
      {
        "type": "node",
        "id": 4942169106,
        "lat": 43.3617608,
        "lon": -5.8635266,
        "tags": {
          "amenity": "bar",
          "disused:name": "Vinoteca El Bosco",
          "_amenity_query": "bar"
        }
      },
      {
        "type": "node",
        "id": 4944167406,
        "lat": 43.364659,
        "lon": -5.8449614,
        "tags": {
          "addr:city": "Oviedo / Uviéu",
          "addr:housenumber": "3",
          "addr:postcode": "33001",
          "addr:street": "Calle Víctor Chávarri / Cai Víctor Chávarri",
          "air_conditioning": "yes",
          "amenity": "bar",
          "indoor_seating": "yes",
          "name": "Feroz",
          "outdoor_seating": "yes",
          "payment:credit_cards": "yes",
          "payment:debit_cards": "yes",
          "smoking": "outside",
          "_amenity_query": "bar"
        }
      },
      {
        "type": "node",
        "id": 4958148369,
        "lat": 43.3570933,
        "lon": -5.8490691,
        "tags": {
          "addr:city": "Oviedo / Uviéu",
          "amenity": "bar",
          "name": "Chaquetón",
          "_amenity_query": "bar"
        }
      },
      {
        "type": "node",
        "id": 4966640723,
        "lat": 43.5552807,
        "lon": -5.9219559,
        "tags": {
          "addr:housenumber": "4",
          "addr:street": "Plaza España",
          "amenity": "bar",
          "check_date": "2024-08-12",
          "name": "Uxia Café",
          "old_name": "Lizarran",
          "outdoor_seating": "yes",
          "wheelchair": "no",
          "_amenity_query": "bar"
        }
      },
      {
        "type": "node",
        "id": 4966640724,
        "lat": 43.5552253,
        "lon": -5.9216721,
        "tags": {
          "addr:housenumber": "4",
          "addr:street": "Plaza España",
          "amenity": "bar",
          "check_date": "2024-08-12",
          "name": "Malvasía",
          "outdoor_seating": "yes",
          "wheelchair": "no",
          "_amenity_query": "bar"
        }
      },
      {
        "type": "node",
        "id": 4985351621,
        "lat": 43.3542068,
        "lon": -5.8403988,
        "tags": {
          "addr:city": "Oviedo / Uviéu",
          "amenity": "bar",
          "cuisine": "burger;international;breakfast;tea;coffee_shop;pizza",
          "diet:vegan": "yes",
          "name": "Lata de Zinc - Chigre Cultural",
          "name:es": "Lata de Zinc - Chigre Cultural",
          "smoking": "no",
          "_amenity_query": "bar"
        }
      },
      {
        "type": "node",
        "id": 5003976333,
        "lat": 43.363348,
        "lon": -5.844997,
        "tags": {
          "addr:city": "Oviedo / Uviéu",
          "amenity": "bar",
          "check_date": "2023-05-10",
          "name": "The Black Bar",
          "_amenity_query": "bar"
        }
      },
      {
        "type": "node",
        "id": 5020167588,
        "lat": 43.4182483,
        "lon": -4.7536646,
        "tags": {
          "air_conditioning": "yes",
          "amenity": "bar",
          "check_date": "2025-03-07",
          "cuisine": "regional",
          "indoor_seating": "yes",
          "name": "El Tendederu",
          "outdoor_seating": "yes",
          "_amenity_query": "bar"
        }
      },
      {
        "type": "node",
        "id": 5041148638,
        "lat": 43.5459027,
        "lon": -5.6645923,
        "tags": {
          "amenity": "bar",
          "name": "The Weekend",
          "source": "survey",
          "_amenity_query": "bar"
        }
      },
      {
        "type": "node",
        "id": 5041148644,
        "lat": 43.5464857,
        "lon": -5.6652151,
        "tags": {
          "amenity": "bar",
          "name": "Atún",
          "source": "survey",
          "_amenity_query": "bar"
        }
      },
      {
        "type": "node",
        "id": 5041148650,
        "lat": 43.546612,
        "lon": -5.6645266,
        "tags": {
          "amenity": "bar",
          "name": "La Plaza",
          "_amenity_query": "bar"
        }
      },
      {
        "type": "node",
        "id": 5041148673,
        "lat": 43.5459614,
        "lon": -5.6646632,
        "tags": {
          "amenity": "bar",
          "name": "La Posada",
          "_amenity_query": "bar"
        }
      },
      {
        "type": "node",
        "id": 5060896021,
        "lat": 43.5461937,
        "lon": -6.1492407,
        "tags": {
          "amenity": "bar",
          "cuisine": "buschenschank;spanish;coffee_shop;barbecue;fish;seafood;breakfast",
          "name": "Bar Maribel",
          "name:es": "Bar Maribel",
          "_amenity_query": "bar"
        }
      },
      {
        "type": "node",
        "id": 5063011034,
        "lat": 43.3542835,
        "lon": -5.9664886,
        "tags": {
          "amenity": "bar",
          "name": "Bar las tres vias",
          "_amenity_query": "bar"
        }
      },
      {
        "type": "node",
        "id": 5099102820,
        "lat": 43.1514693,
        "lon": -5.2909424,
        "tags": {
          "addr:city": "Bezanes",
          "amenity": "bar",
          "indoor_seating": "yes",
          "name": "Bar La Bolera",
          "outdoor_seating": "yes",
          "_amenity_query": "bar"
        }
      },
      {
        "type": "node",
        "id": 5111729322,
        "lat": 43.3679738,
        "lon": -5.854886,
        "tags": {
          "amenity": "bar",
          "name": "El Molinín 2",
          "_amenity_query": "bar"
        }
      },
      {
        "type": "node",
        "id": 5111729421,
        "lat": 43.366968,
        "lon": -5.8563001,
        "tags": {
          "amenity": "bar",
          "name": "neo",
          "_amenity_query": "bar"
        }
      },
      {
        "type": "node",
        "id": 5111770023,
        "lat": 43.3633232,
        "lon": -5.845493,
        "tags": {
          "addr:city": "Oviedo / Uviéu",
          "amenity": "bar",
          "name": "Traslacerca",
          "_amenity_query": "bar"
        }
      },
      {
        "type": "node",
        "id": 5111785721,
        "lat": 43.3683839,
        "lon": -5.8548384,
        "tags": {
          "addr:city": "Oviedo / Uviéu",
          "addr:housenumber": "7",
          "addr:postcode": "33012",
          "addr:street": "Calle Monte Auseva",
          "amenity": "bar",
          "name": "Café-Bar Los Campos",
          "_amenity_query": "bar"
        }
      },
      {
        "type": "node",
        "id": 5126602622,
        "lat": 43.5465113,
        "lon": -5.6635379,
        "tags": {
          "amenity": "bar",
          "name": "La Tabacalera",
          "name:es": "La Tabacalera",
          "_amenity_query": "bar"
        }
      },
      {
        "type": "node",
        "id": 5128949026,
        "lat": 43.3614043,
        "lon": -5.8440569,
        "tags": {
          "addr:city": "Oviedo",
          "addr:housenumber": "3",
          "addr:postcode": "33003",
          "addr:street": "Calle San Antonio",
          "amenity": "bar",
          "indoor_seating": "no",
          "name": "Kiko Maracas",
          "outdoor_seating": "yes",
          "_amenity_query": "bar"
        }
      },
      {
        "type": "node",
        "id": 5169582923,
        "lat": 43.2919953,
        "lon": -5.9823934,
        "tags": {
          "addr:city": "Tuñón",
          "amenity": "bar",
          "outdoor_seating": "yes",
          "_amenity_query": "bar"
        }
      },
      {
        "type": "node",
        "id": 5262968346,
        "lat": 43.5401771,
        "lon": -5.6857505,
        "tags": {
          "addr:city": "Gijón/Xixón",
          "addr:housenumber": "26",
          "addr:postcode": "33212",
          "addr:street": "Calle Zaragoza",
          "amenity": "bar",
          "name": "Bar Dakar",
          "outdoor_seating": "no",
          "smoking": "outside",
          "_amenity_query": "bar"
        }
      },
      {
        "type": "node",
        "id": 5262968347,
        "lat": 43.5402557,
        "lon": -5.6857476,
        "tags": {
          "addr:city": "Gijón/Xixón",
          "addr:housenumber": "28",
          "addr:postcode": "33212",
          "addr:street": "Calle Zaragoza",
          "amenity": "bar",
          "name": "Bar Suenco",
          "outdoor_seating": "no",
          "smoking": "outside",
          "_amenity_query": "bar"
        }
      },
      {
        "type": "node",
        "id": 5328152527,
        "lat": 43.3476882,
        "lon": -5.1311997,
        "tags": {
          "amenity": "bar",
          "indoor_seating": "yes",
          "name": "Bar La Huera",
          "opening_hours": "Mo-Su 07:00-10:00",
          "outdoor_seating": "yes",
          "smoking": "outside",
          "wheelchair": "yes",
          "_amenity_query": "bar"
        }
      },
      {
        "type": "node",
        "id": 5334534930,
        "lat": 43.5365396,
        "lon": -5.6600221,
        "tags": {
          "addr:city": "Gijón/Xixón",
          "amenity": "bar",
          "name": "Orígenes",
          "outdoor_seating": "yes",
          "_amenity_query": "bar"
        }
      },
      {
        "type": "node",
        "id": 5404034704,
        "lat": 43.3940234,
        "lon": -5.7068592,
        "tags": {
          "amenity": "bar",
          "brewery": "yes",
          "name": "El Retiro",
          "_amenity_query": "bar"
        }
      },
      {
        "type": "node",
        "id": 5404230822,
        "lat": 43.3943134,
        "lon": -5.7062787,
        "tags": {
          "amenity": "bar",
          "name": "La Cepa",
          "outdoor_seating": "yes",
          "_amenity_query": "bar"
        }
      },
      {
        "type": "node",
        "id": 5404230831,
        "lat": 43.3944488,
        "lon": -5.7063846,
        "tags": {
          "amenity": "bar",
          "name": "Envero",
          "_amenity_query": "bar"
        }
      },
      {
        "type": "node",
        "id": 5404526668,
        "lat": 43.3933589,
        "lon": -5.7089865,
        "tags": {
          "amenity": "bar",
          "name": "El Chikito",
          "_amenity_query": "bar"
        }
      },
      {
        "type": "node",
        "id": 5405045987,
        "lat": 43.3914842,
        "lon": -5.7067092,
        "tags": {
          "amenity": "bar",
          "name": "Mesón El Garabatu",
          "outdoor_seating": "yes",
          "_amenity_query": "bar"
        }
      },
      {
        "type": "node",
        "id": 5441147165,
        "lat": 43.36032,
        "lon": -5.8442344,
        "tags": {
          "addr:city": "Oviedo / Uviéu",
          "addr:housenumber": "1",
          "addr:postcode": "33009",
          "addr:street": "Plaza del Sol",
          "amenity": "bar",
          "indoor_seating": "yes",
          "internet_access:fee": "no",
          "name": "La Forja",
          "opening_hours": "Mo-Th 09:00-01:30; Fr-Sa 11:00-02:30; Su 11:00-01:30",
          "outdoor_seating": "yes",
          "smoking": "outside",
          "_amenity_query": "bar"
        }
      },
      {
        "type": "node",
        "id": 5452241226,
        "lat": 43.5782239,
        "lon": -6.2224228,
        "tags": {
          "amenity": "bar",
          "indoor_seating": "yes",
          "name": "Waikiki Beach",
          "outdoor_seating": "yes",
          "source": "survey",
          "_amenity_query": "bar"
        }
      },
      {
        "type": "node",
        "id": 5460583514,
        "lat": 43.5720132,
        "lon": -6.9441578,
        "tags": {
          "amenity": "bar",
          "name": "El Muelle",
          "source": "survey",
          "_amenity_query": "bar"
        }
      },
      {
        "type": "node",
        "id": 5466452028,
        "lat": 43.5304519,
        "lon": -5.6495952,
        "tags": {
          "addr:city": "Gijón/Xixón",
          "amenity": "bar",
          "name": "Snooker",
          "sport": "billiards",
          "_amenity_query": "bar"
        }
      },
      {
        "type": "node",
        "id": 5537868871,
        "lat": 43.3630492,
        "lon": -5.8441015,
        "tags": {
          "addr:city": "Oviedo / Uviéu",
          "addr:street": "Calle del Águila",
          "air_conditioning": "no",
          "amenity": "bar",
          "indoor_seating": "yes",
          "name": "La Belmontina",
          "outdoor_seating": "yes",
          "payment:credit_cards": "no",
          "payment:debit_cards": "no",
          "smoking": "outside",
          "wheelchair": "no",
          "_amenity_query": "bar"
        }
      },
      {
        "type": "node",
        "id": 5612097026,
        "lat": 43.0953799,
        "lon": -6.2580962,
        "tags": {
          "amenity": "bar",
          "name": "Peñavera",
          "_amenity_query": "bar"
        }
      },
      {
        "type": "node",
        "id": 5613959399,
        "lat": 43.0927603,
        "lon": -6.2554872,
        "tags": {
          "amenity": "bar",
          "name": "Casa Pepe",
          "_amenity_query": "bar"
        }
      },
      {
        "type": "node",
        "id": 5617761355,
        "lat": 43.3598773,
        "lon": -5.8449731,
        "tags": {
          "amenity": "bar",
          "name": "Riomar",
          "_amenity_query": "bar"
        }
      },
      {
        "type": "node",
        "id": 5618209181,
        "lat": 43.3618894,
        "lon": -5.8468516,
        "tags": {
          "addr:city": "Oviedo",
          "addr:housenumber": "5",
          "addr:postcode": "33003",
          "addr:street": "Calle San Francisco",
          "amenity": "bar",
          "indoor_seating": "yes",
          "name": "el de diez de la gorda",
          "opening_hours": "Mo-Sa 08:00-01:45",
          "outdoor_seating": "yes",
          "smoking": "no",
          "_amenity_query": "bar"
        }
      },
      {
        "type": "node",
        "id": 5620546439,
        "lat": 43.3610928,
        "lon": -5.8455177,
        "tags": {
          "air_conditioning": "yes",
          "amenity": "bar",
          "indoor_seating": "yes",
          "name": "El Quinto de la Tarde",
          "outdoor_seating": "yes",
          "payment:credit_cards": "yes",
          "payment:debit_cards": "yes",
          "smoking": "outside",
          "wheelchair": "no",
          "_amenity_query": "bar"
        }
      },
      {
        "type": "node",
        "id": 5620591762,
        "lat": 43.3595219,
        "lon": -5.8430623,
        "tags": {
          "addr:city": "Oviedo / Uviéu",
          "addr:street": "Calle Oscura",
          "amenity": "bar",
          "name": "Rocket",
          "_amenity_query": "bar"
        }
      },
      {
        "type": "node",
        "id": 5648003825,
        "lat": 43.6054809,
        "lon": -5.9145216,
        "tags": {
          "amenity": "bar",
          "name": "Mari Mar",
          "_amenity_query": "bar"
        }
      },
      {
        "type": "node",
        "id": 5654935592,
        "lat": 43.3648469,
        "lon": -5.8498914,
        "tags": {
          "amenity": "bar",
          "check_date": "2023-05-04",
          "name": "Las Campanas de San Bernabé",
          "_amenity_query": "bar"
        }
      },
      {
        "type": "node",
        "id": 5654935593,
        "lat": 43.3649441,
        "lon": -5.8498553,
        "tags": {
          "amenity": "bar",
          "name": "Casa Montoto",
          "_amenity_query": "bar"
        }
      },
      {
        "type": "node",
        "id": 5654973737,
        "lat": 43.3578185,
        "lon": -5.8471669,
        "tags": {
          "amenity": "bar",
          "name": "Piano-Bar",
          "_amenity_query": "bar"
        }
      },
      {
        "type": "node",
        "id": 5656486595,
        "lat": 43.5522384,
        "lon": -5.920444,
        "tags": {
          "amenity": "bar",
          "name": "Bar La Tinta",
          "_amenity_query": "bar"
        }
      },
      {
        "type": "node",
        "id": 5661546839,
        "lat": 43.4663508,
        "lon": -5.0749993,
        "tags": {
          "amenity": "bar",
          "name": "Chiringuito de Playa",
          "_amenity_query": "bar"
        }
      },
      {
        "type": "node",
        "id": 5661546840,
        "lat": 43.4662044,
        "lon": -5.062636,
        "tags": {
          "amenity": "bar",
          "name": "Chiringuito de Playa",
          "_amenity_query": "bar"
        }
      },
      {
        "type": "node",
        "id": 5661548262,
        "lat": 43.4652654,
        "lon": -5.0709135,
        "tags": {
          "amenity": "bar",
          "name": "Chiringuito de Playa",
          "_amenity_query": "bar"
        }
      },
      {
        "type": "node",
        "id": 5666512464,
        "lat": 43.4610427,
        "lon": -5.0845322,
        "tags": {
          "amenity": "bar",
          "name": "Bar Casa Adolfo",
          "phone": "+34 985 86 02 89",
          "_amenity_query": "bar"
        }
      },
      {
        "type": "node",
        "id": 5693165684,
        "lat": 43.5528268,
        "lon": -5.9202696,
        "tags": {
          "addr:city": "Avilés",
          "addr:street": "Cai/Calle Rivero",
          "amenity": "bar",
          "check_date": "2024-08-14",
          "name": "Bodega La Calleja",
          "wheelchair": "no",
          "_amenity_query": "bar"
        }
      },